{"@id":"https://w3id.org/rrsp_convert","type":"FeatureCollection","@context":"https://w3id.org/locolligo/contexts/linkedplaces.jsonld","features":[{"@id":1001,"type":"Feature","properties":{"title":"Woodham Walter","url":"https://archaeologydataservice.ac.uk/archives/view/romangl/maprecord.cfm?id=1001"},"geometry":{"type":"Point","coordinates":[0.62314677,51.742302]}},{"@id":1002,"type":"Feature","properties":{"title":"Great Chesterford Temple","url":"https://archaeologydataservice.ac.uk/archives/view/romangl/maprecord.cfm?id=1002"},"geometry":{"type":"Point","coordinates":[0.20805209,52.070481]}},{"@id":1003,"type":"Feature","properties":{"title":"Great Holts Farm","url":"https://archaeologydataservice.ac.uk/archives/view/romangl/maprecord.cfm?id=1003"},"geometry":{"type":"Point","coordinates":[0.53832446,51.779688]}},{"@id":1004,"type":"Feature","properties":{"title":"Strood Hall","url":"https://archaeologydataservice.ac.uk/archives/view/romangl/maprecord.cfm?id=1004"},"geometry":{"type":"Point","coordinates":[0.32357662,51.869876]}},{"@id":1005,"type":"Feature","properties":{"title":"Rayne Roundabout","url":"https://archaeologydataservice.ac.uk/archives/view/romangl/maprecord.cfm?id=1005"},"geometry":{"type":"Point","coordinates":[0.48811412,51.87258]}},{"@id":1006,"type":"Feature","properties":{"title":"Parsonage Lane","url":"https://archaeologydataservice.ac.uk/archives/view/romangl/maprecord.cfm?id=1006"},"geometry":{"type":"Point","coordinates":[0.26623212,51.875509]}},{"@id":1007,"type":"Feature","properties":{"title":"Valentine Cottage","url":"https://archaeologydataservice.ac.uk/archives/view/romangl/maprecord.cfm?id=1007"},"geometry":{"type":"Point","coordinates":[0.515032,51.867844]}},{"@id":1008,"type":"Feature","properties":{"title":"Highwood Farm","url":"https://archaeologydataservice.ac.uk/archives/view/romangl/maprecord.cfm?id=1008"},"geometry":{"type":"Point","coordinates":[0.33827234,51.86641]}},{"@id":1009,"type":"Feature","properties":{"title":"East of Little Dunmow Road","url":"https://archaeologydataservice.ac.uk/archives/view/romangl/maprecord.cfm?id=1009"},"geometry":{"type":"Point","coordinates":[0.40187285,51.871981]}},{"@id":1010,"type":"Feature","properties":{"title":"Little Oakley","url":"https://archaeologydataservice.ac.uk/archives/view/romangl/maprecord.cfm?id=1010"},"geometry":{"type":"Point","coordinates":[1.2312305,51.916593]}},{"@id":1011,"type":"Feature","properties":{"title":"Ardleigh","url":"https://archaeologydataservice.ac.uk/archives/view/romangl/maprecord.cfm?id=1011"},"geometry":{"type":"Point","coordinates":[0.98929653,51.92023]}},{"@id":1012,"type":"Feature","properties":{"title":"Ivy Chimneys","url":"https://archaeologydataservice.ac.uk/archives/view/romangl/maprecord.cfm?id=1012"},"geometry":{"type":"Point","coordinates":[0.6251699,51.792412]}},{"@id":1013,"type":"Feature","properties":{"title":"Orsett 'Cock'","url":"https://archaeologydataservice.ac.uk/archives/view/romangl/maprecord.cfm?id=1013"},"geometry":{"type":"Point","coordinates":[0.38203135,51.506668]}},{"@id":1014,"type":"Feature","properties":{"title":"Stansted 99-04 Site LTCP","url":"https://archaeologydataservice.ac.uk/archives/view/romangl/maprecord.cfm?id=1014"},"geometry":{"type":"Point","coordinates":[0.21052833,51.886137]}},{"@id":1015,"type":"Feature","properties":{"title":"Stansted 85-91 (ACS)","url":"https://archaeologydataservice.ac.uk/archives/view/romangl/maprecord.cfm?id=1015"},"geometry":{"type":"Point","coordinates":[0.25653766,51.887035]}},{"@id":1016,"type":"Feature","properties":{"title":"Stansted 85-91 BLS/DFS/DCS","url":"https://archaeologydataservice.ac.uk/archives/view/romangl/maprecord.cfm?id=1016"},"geometry":{"type":"Point","coordinates":[0.23614375,51.884295]}},{"@id":1017,"type":"Feature","properties":{"title":"Chignall","url":"https://archaeologydataservice.ac.uk/archives/view/romangl/maprecord.cfm?id=1017"},"geometry":{"type":"Point","coordinates":[0.40840167,51.770624]}},{"@id":1018,"type":"Feature","properties":{"title":"Gutteridge Wood, Weeley","url":"https://archaeologydataservice.ac.uk/archives/view/romangl/maprecord.cfm?id=1018"},"geometry":{"type":"Point","coordinates":[1.1065913,51.846326]}},{"@id":1019,"type":"Feature","properties":{"title":"The Rodings","url":"https://archaeologydataservice.ac.uk/archives/view/romangl/maprecord.cfm?id=1019"},"geometry":{"type":"Point","coordinates":[0.29291165,51.794759]}},{"@id":1020,"type":"Feature","properties":{"title":"South of A120, Takeley","url":"https://archaeologydataservice.ac.uk/archives/view/romangl/maprecord.cfm?id=1020"},"geometry":{"type":"Point","coordinates":[0.2634412,51.867092]}},{"@id":1021,"type":"Feature","properties":{"title":"Thaxted","url":"https://archaeologydataservice.ac.uk/archives/view/romangl/maprecord.cfm?id=1021"},"geometry":{"type":"Point","coordinates":[0.34576811,51.96098]}},{"@id":1022,"type":"Feature","properties":{"title":"Great Notley","url":"https://archaeologydataservice.ac.uk/archives/view/romangl/maprecord.cfm?id=1022"},"geometry":{"type":"Point","coordinates":[0.51802117,51.866224]}},{"@id":1023,"type":"Feature","properties":{"title":"Frogs Hall Borrow Pit, Takeley","url":"https://archaeologydataservice.ac.uk/archives/view/romangl/maprecord.cfm?id=1023"},"geometry":{"type":"Point","coordinates":[0.30344952,51.879678]}},{"@id":1024,"type":"Feature","properties":{"title":"Slough House Farm","url":"https://archaeologydataservice.ac.uk/archives/view/romangl/maprecord.cfm?id=1024"},"geometry":{"type":"Point","coordinates":[0.71230889,51.750943]}},{"@id":1025,"type":"Feature","properties":{"title":"Chigborough Farm","url":"https://archaeologydataservice.ac.uk/archives/view/romangl/maprecord.cfm?id=1025"},"geometry":{"type":"Point","coordinates":[0.72067585,51.740686]}},{"@id":1026,"type":"Feature","properties":{"title":"North Shoebury","url":"https://archaeologydataservice.ac.uk/archives/view/romangl/maprecord.cfm?id=1026"},"geometry":{"type":"Point","coordinates":[0.78496976,51.543135]}},{"@id":1027,"type":"Feature","properties":{"title":"Blackwater Redhills","url":"https://archaeologydataservice.ac.uk/archives/view/romangl/maprecord.cfm?id=1027"},"geometry":{"type":"Point","coordinates":[0.80703373,51.740749]}},{"@id":1028,"type":"Feature","properties":{"title":"Ardale","url":"https://archaeologydataservice.ac.uk/archives/view/romangl/maprecord.cfm?id=1028"},"geometry":{"type":"Point","coordinates":[0.30144375,51.496343]}},{"@id":1029,"type":"Feature","properties":{"title":"Great Dunmow","url":"https://archaeologydataservice.ac.uk/archives/view/romangl/maprecord.cfm?id=1029"},"geometry":{"type":"Point","coordinates":[0.36025375,51.872032]}},{"@id":1030,"type":"Feature","properties":{"title":"Elsenham Quarry","url":"https://archaeologydataservice.ac.uk/archives/view/romangl/maprecord.cfm?id=1030"},"geometry":{"type":"Point","coordinates":[0.26025076,51.915848]}},{"@id":1031,"type":"Feature","properties":{"title":"Billericay","url":"https://archaeologydataservice.ac.uk/archives/view/romangl/maprecord.cfm?id=1031"},"geometry":{"type":"Point","coordinates":[0.41786526,51.614509]}},{"@id":1032,"type":"Feature","properties":{"title":"Stansted 99-04 Site MTCP","url":"https://archaeologydataservice.ac.uk/archives/view/romangl/maprecord.cfm?id=1032"},"geometry":{"type":"Point","coordinates":[0.25387545,51.879137]}},{"@id":1033,"type":"Feature","properties":{"title":"Braintree, Pierrefitte Way","url":"https://archaeologydataservice.ac.uk/archives/view/romangl/maprecord.cfm?id=1033"},"geometry":{"type":"Point","coordinates":[0.54777134,51.877796]}},{"@id":1034,"type":"Feature","properties":{"title":"Hill Farm, Gestingthorpe","url":"https://archaeologydataservice.ac.uk/archives/view/romangl/maprecord.cfm?id=1034"},"geometry":{"type":"Point","coordinates":[0.66229705,52.01681]}},{"@id":1035,"type":"Feature","properties":{"title":"Great Wakering","url":"https://archaeologydataservice.ac.uk/archives/view/romangl/maprecord.cfm?id=1035"},"geometry":{"type":"Point","coordinates":[0.81176438,51.553117]}},{"@id":1036,"type":"Feature","properties":{"title":"West Thurrock","url":"https://archaeologydataservice.ac.uk/archives/view/romangl/maprecord.cfm?id=1036"},"geometry":{"type":"Point","coordinates":[0.25514614,51.480165]}},{"@id":1037,"type":"Feature","properties":{"title":"Rainham","url":"https://archaeologydataservice.ac.uk/archives/view/romangl/maprecord.cfm?id=1037"},"geometry":{"type":"Point","coordinates":[0.2353251,51.515428]}},{"@id":1038,"type":"Feature","properties":{"title":"Great Dunmow, High St","url":"https://archaeologydataservice.ac.uk/archives/view/romangl/maprecord.cfm?id=1038"},"geometry":{"type":"Point","coordinates":[0.36615563,51.869611]}},{"@id":1039,"type":"Feature","properties":{"title":"Monument Borrow Pit","url":"https://archaeologydataservice.ac.uk/archives/view/romangl/maprecord.cfm?id=1039"},"geometry":{"type":"Point","coordinates":[0.5585915,51.596245]}},{"@id":1040,"type":"Feature","properties":{"title":"Curry Hill","url":"https://archaeologydataservice.ac.uk/archives/view/romangl/maprecord.cfm?id=1040"},"geometry":{"type":"Point","coordinates":[0.55313037,51.630934]}},{"@id":1041,"type":"Feature","properties":{"title":"Great Dunmow, Junior School","url":"https://archaeologydataservice.ac.uk/archives/view/romangl/maprecord.cfm?id=1041"},"geometry":{"type":"Point","coordinates":[0.3576199,51.871671]}},{"@id":1042,"type":"Feature","properties":{"title":"Little Waltham, Wickham Ley","url":"https://archaeologydataservice.ac.uk/archives/view/romangl/maprecord.cfm?id=1042"},"geometry":{"type":"Point","coordinates":[0.47164476,51.786281]}},{"@id":1043,"type":"Feature","properties":{"title":"Cressing Churchyard","url":"https://archaeologydataservice.ac.uk/archives/view/romangl/maprecord.cfm?id=1043"},"geometry":{"type":"Point","coordinates":[0.60351421,51.854254]}},{"@id":1044,"type":"Feature","properties":{"title":"Kelvedon","url":"https://archaeologydataservice.ac.uk/archives/view/romangl/maprecord.cfm?id=1044"},"geometry":{"type":"Point","coordinates":[0.70422761,51.838491]}},{"@id":1045,"type":"Feature","properties":{"title":"Harlow","url":"https://archaeologydataservice.ac.uk/archives/view/romangl/maprecord.cfm?id=1045"},"geometry":{"type":"Point","coordinates":[0.12707649,51.790135]}},{"@id":1046,"type":"Feature","properties":{"title":"Bulls Lodge Quarry","url":"https://archaeologydataservice.ac.uk/archives/view/romangl/maprecord.cfm?id=1046"},"geometry":{"type":"Point","coordinates":[0.51460174,51.765288]}},{"@id":1047,"type":"Feature","properties":{"title":"Great Dunmow, Redbond Lodge","url":"https://archaeologydataservice.ac.uk/archives/view/romangl/maprecord.cfm?id=1047"},"geometry":{"type":"Point","coordinates":[0.3605808,51.871342]}},{"@id":1048,"type":"Feature","properties":{"title":"Kelvedon, land to the rear of Lawson Villas","url":"https://archaeologydataservice.ac.uk/archives/view/romangl/maprecord.cfm?id=1048"},"geometry":{"type":"Point","coordinates":[0.70272941,51.837716]}},{"@id":1049,"type":"Feature","properties":{"title":"Mill Hill, Braintree","url":"https://archaeologydataservice.ac.uk/archives/view/romangl/maprecord.cfm?id=1049"},"geometry":{"type":"Point","coordinates":[0.5665699,51.868556]}},{"@id":1050,"type":"Feature","properties":{"title":"Ship Lane, Aveley","url":"https://archaeologydataservice.ac.uk/archives/view/romangl/maprecord.cfm?id=1050"},"geometry":{"type":"Point","coordinates":[0.25517499,51.49155]}},{"@id":1051,"type":"Feature","properties":{"title":"Elm Park, Ardleigh","url":"https://archaeologydataservice.ac.uk/archives/view/romangl/maprecord.cfm?id=1051"},"geometry":{"type":"Point","coordinates":[0.98747417,51.918414]}},{"@id":1052,"type":"Feature","properties":{"title":"Kelvedon, Star and Fleece","url":"https://archaeologydataservice.ac.uk/archives/view/romangl/maprecord.cfm?id=1052"},"geometry":{"type":"Point","coordinates":[0.7051621,51.839549]}},{"@id":1053,"type":"Feature","properties":{"title":"Mucking","url":"https://archaeologydataservice.ac.uk/archives/view/romangl/maprecord.cfm?id=1053"},"geometry":{"type":"Point","coordinates":[0.40875231,51.496886]}},{"@id":1054,"type":"Feature","properties":{"title":"Old House Site, Harlow","url":"https://archaeologydataservice.ac.uk/archives/view/romangl/maprecord.cfm?id=1054"},"geometry":{"type":"Point","coordinates":[0.14921161,51.767098]}},{"@id":1055,"type":"Feature","properties":{"title":"Braintree, Grenville/College Rd","url":"https://archaeologydataservice.ac.uk/archives/view/romangl/maprecord.cfm?id=1055"},"geometry":{"type":"Point","coordinates":[0.54504345,51.878376]}},{"@id":1056,"type":"Feature","properties":{"title":"Heybridge, Langford Rd","url":"https://archaeologydataservice.ac.uk/archives/view/romangl/maprecord.cfm?id=1056"},"geometry":{"type":"Point","coordinates":[0.67414453,51.744587]}},{"@id":1057,"type":"Feature","properties":{"title":"Buildings Farm, Great Dunmow","url":"https://archaeologydataservice.ac.uk/archives/view/romangl/maprecord.cfm?id=1057"},"geometry":{"type":"Point","coordinates":[0.34806278,51.873661]}},{"@id":1058,"type":"Feature","properties":{"title":"Sandford Quarry","url":"https://archaeologydataservice.ac.uk/archives/view/romangl/maprecord.cfm?id=1058"},"geometry":{"type":"Point","coordinates":[0.62243897,51.780089]}},{"@id":1059,"type":"Feature","properties":{"title":"Castle Hedingham","url":"https://archaeologydataservice.ac.uk/archives/view/romangl/maprecord.cfm?id=1059"},"geometry":{"type":"Point","coordinates":[0.59998719,51.982618]}},{"@id":1060,"type":"Feature","properties":{"title":"Coggeshall","url":"https://archaeologydataservice.ac.uk/archives/view/romangl/maprecord.cfm?id=1060"},"geometry":{"type":"Point","coordinates":[0.6914731,51.873632]}},{"@id":1061,"type":"Feature","properties":{"title":"Othona","url":"https://archaeologydataservice.ac.uk/archives/view/romangl/maprecord.cfm?id=1061"},"geometry":{"type":"Point","coordinates":[0.93943942,51.737789]}},{"@id":1062,"type":"Feature","properties":{"title":"Bulls Lodge, Boreham","url":"https://archaeologydataservice.ac.uk/archives/view/romangl/maprecord.cfm?id=1062"},"geometry":{"type":"Point","coordinates":[0.53003252,51.767789]}},{"@id":1063,"type":"Feature","properties":{"title":"Braintree, excavations 1984-90","url":"https://archaeologydataservice.ac.uk/archives/view/romangl/maprecord.cfm?id=1063"},"geometry":{"type":"Point","coordinates":[0.54875653,51.878773]}},{"@id":1064,"type":"Feature","properties":{"title":"Billericay, School","url":"https://archaeologydataservice.ac.uk/archives/view/romangl/maprecord.cfm?id=1064"},"geometry":{"type":"Point","coordinates":[0.41805629,51.618102]}},{"@id":1065,"type":"Feature","properties":{"title":"Rayne","url":"https://archaeologydataservice.ac.uk/archives/view/romangl/maprecord.cfm?id=1065"},"geometry":{"type":"Point","coordinates":[0.48650446,51.873424]}},{"@id":1066,"type":"Feature","properties":{"title":"Heybridge, Crescent Rd","url":"https://archaeologydataservice.ac.uk/archives/view/romangl/maprecord.cfm?id=1066"},"geometry":{"type":"Point","coordinates":[0.67817593,51.741959]}},{"@id":1067,"type":"Feature","properties":{"title":"Rivenhall","url":"https://archaeologydataservice.ac.uk/archives/view/romangl/maprecord.cfm?id=1067"},"geometry":{"type":"Point","coordinates":[0.65160398,51.828907]}},{"@id":1068,"type":"Feature","properties":{"title":"Grays","url":"https://archaeologydataservice.ac.uk/archives/view/romangl/maprecord.cfm?id=1068"},"geometry":{"type":"Point","coordinates":[0.35256689,51.483565]}},{"@id":1069,"type":"Feature","properties":{"title":"Nazeingbury","url":"https://archaeologydataservice.ac.uk/archives/view/romangl/maprecord.cfm?id=1069"},"geometry":{"type":"Point","coordinates":[0.0059907,51.740971]}},{"@id":1070,"type":"Feature","properties":{"title":"Little Shelford, Foulness","url":"https://archaeologydataservice.ac.uk/archives/view/romangl/maprecord.cfm?id=1070"},"geometry":{"type":"Point","coordinates":[0.85620811,51.578575]}},{"@id":1071,"type":"Feature","properties":{"title":"Chigwell, Little London","url":"https://archaeologydataservice.ac.uk/archives/view/romangl/maprecord.cfm?id=1071"},"geometry":{"type":"Point","coordinates":[0.1014383,51.643982]}},{"@id":1072,"type":"Feature","properties":{"title":"Stebbing Green","url":"https://archaeologydataservice.ac.uk/archives/view/romangl/maprecord.cfm?id=1072"},"geometry":{"type":"Point","coordinates":[0.45257602,51.882679]}},{"@id":1073,"type":"Feature","properties":{"title":"Harlow, Holbrooks","url":"https://archaeologydataservice.ac.uk/archives/view/romangl/maprecord.cfm?id=1073"},"geometry":{"type":"Point","coordinates":[0.13000728,51.793247]}},{"@id":1074,"type":"Feature","properties":{"title":"Duck Street, Wendens Ambo","url":"https://archaeologydataservice.ac.uk/archives/view/romangl/maprecord.cfm?id=1074"},"geometry":{"type":"Point","coordinates":[0.1983379,52.002807]}},{"@id":1075,"type":"Feature","properties":{"title":"20 Yorick Road, West Mersea","url":"https://archaeologydataservice.ac.uk/archives/view/romangl/maprecord.cfm?id=1075"},"geometry":{"type":"Point","coordinates":[0.92614438,51.774807]}},{"@id":1076,"type":"Feature","properties":{"title":"Woodlands Park, Great Dunmow","url":"https://archaeologydataservice.ac.uk/archives/view/romangl/maprecord.cfm?id=1076"},"geometry":{"type":"Point","coordinates":[0.34478531,51.877683]}},{"@id":1077,"type":"Feature","properties":{"title":"Rye Hill to Fairfield Trunk Main","url":"https://archaeologydataservice.ac.uk/archives/view/romangl/maprecord.cfm?id=1077"},"geometry":{"type":"Point","coordinates":[0.11114817,51.723518]}},{"@id":1078,"type":"Feature","properties":{"title":"Colemans Farm, Rivenhall End","url":"https://archaeologydataservice.ac.uk/archives/view/romangl/maprecord.cfm?id=1078"},"geometry":{"type":"Point","coordinates":[0.6557276,51.810431]}},{"@id":1079,"type":"Feature","properties":{"title":"Haverhill Business Park, Sturmer","url":"https://archaeologydataservice.ac.uk/archives/view/romangl/maprecord.cfm?id=1079"},"geometry":{"type":"Point","coordinates":[0.44099965,52.071047]}},{"@id":1080,"type":"Feature","properties":{"title":"Great Dumnow, Primary school site at the former Newton works","url":"https://archaeologydataservice.ac.uk/archives/view/romangl/maprecord.cfm?id=1080"},"geometry":{"type":"Point","coordinates":[0.34314234,51.874029]}},{"@id":1081,"type":"Feature","properties":{"title":"Birch Pit western extension, Maldon Road, Colchester","url":"https://archaeologydataservice.ac.uk/archives/view/romangl/maprecord.cfm?id=1081"},"geometry":{"type":"Point","coordinates":[0.79276979,51.838219]}},{"@id":1082,"type":"Feature","properties":{"title":"Birch Spring, Highwood, Writtle","url":"https://archaeologydataservice.ac.uk/archives/view/romangl/maprecord.cfm?id=1082"},"geometry":{"type":"Point","coordinates":[0.35194402,51.749169]}},{"@id":1083,"type":"Feature","properties":{"title":"Gilden Way, Harlow, Essex","url":"https://archaeologydataservice.ac.uk/archives/view/romangl/maprecord.cfm?id=1083"},"geometry":{"type":"Point","coordinates":[0.14661259,51.789294]}},{"@id":1084,"type":"Feature","properties":{"title":"Harlowbury","url":"https://archaeologydataservice.ac.uk/archives/view/romangl/maprecord.cfm?id=1084"},"geometry":{"type":"Point","coordinates":[0.14505563,51.792236]}},{"@id":1085,"type":"Feature","properties":{"title":"Braintree, 95-103 High Street","url":"https://archaeologydataservice.ac.uk/archives/view/romangl/maprecord.cfm?id=1085"},"geometry":{"type":"Point","coordinates":[0.55106744,51.876987]}},{"@id":1086,"type":"Feature","properties":{"title":"Great Dunmow, 2 Chequers Lane","url":"https://archaeologydataservice.ac.uk/archives/view/romangl/maprecord.cfm?id=1086"},"geometry":{"type":"Point","coordinates":[0.35860081,51.872371]}},{"@id":1087,"type":"Feature","properties":{"title":"Prentice Place, Carter Mead, Harlow","url":"https://archaeologydataservice.ac.uk/archives/view/romangl/maprecord.cfm?id=1087"},"geometry":{"type":"Point","coordinates":[0.13059057,51.757312]}},{"@id":1088,"type":"Feature","properties":{"title":"Colchester Garrison Areas J, K, L and N","url":"https://archaeologydataservice.ac.uk/archives/view/romangl/maprecord.cfm?id=1088"},"geometry":{"type":"Point","coordinates":[0.89122918,51.877362]}},{"@id":1089,"type":"Feature","properties":{"title":"Colchester Garrison Area S2 (N&S)","url":"https://archaeologydataservice.ac.uk/archives/view/romangl/maprecord.cfm?id=1089"},"geometry":{"type":"Point","coordinates":[0.89512783,51.860925]}},{"@id":1090,"type":"Feature","properties":{"title":"Lufkins Farm, Great Bentley","url":"https://archaeologydataservice.ac.uk/archives/view/romangl/maprecord.cfm?id=1090"},"geometry":{"type":"Point","coordinates":[1.0445793,51.858499]}},{"@id":1091,"type":"Feature","properties":{"title":"Abbotts Hall Farm, Great Wigborough","url":"https://archaeologydataservice.ac.uk/archives/view/romangl/maprecord.cfm?id=1091"},"geometry":{"type":"Point","coordinates":[0.85493364,51.788161]}},{"@id":1092,"type":"Feature","properties":{"title":"Abbotstone Field, Warren Lane, Stanway","url":"https://archaeologydataservice.ac.uk/archives/view/romangl/maprecord.cfm?id=1092"},"geometry":{"type":"Point","coordinates":[0.82082897,51.869027]}},{"@id":1093,"type":"Feature","properties":{"title":"Maltings Lane, Witham","url":"https://archaeologydataservice.ac.uk/archives/view/romangl/maprecord.cfm?id=1093"},"geometry":{"type":"Point","coordinates":[0.63014922,51.788011]}},{"@id":1094,"type":"Feature","properties":{"title":"The Old Sugar Beet Works, Felsted","url":"https://archaeologydataservice.ac.uk/archives/view/romangl/maprecord.cfm?id=1094"},"geometry":{"type":"Point","coordinates":[0.4152287,51.863668]}},{"@id":1095,"type":"Feature","properties":{"title":"Thorpe Hall, Station Road, Thorpe-le-Soken","url":"https://archaeologydataservice.ac.uk/archives/view/romangl/maprecord.cfm?id=1095"},"geometry":{"type":"Point","coordinates":[1.1707671,51.851763]}},{"@id":1096,"type":"Feature","properties":{"title":"London Gateway, Stanford Wharf Nature Reserve, Stanford-le-Hope","url":"https://archaeologydataservice.ac.uk/archives/view/romangl/maprecord.cfm?id=1096"},"geometry":{"type":"Point","coordinates":[0.44511734,51.503327]}},{"@id":1097,"type":"Feature","properties":{"title":"Turner Village Hospital, Colchester","url":"https://archaeologydataservice.ac.uk/archives/view/romangl/maprecord.cfm?id=1097"},"geometry":{"type":"Point","coordinates":[0.8996214,51.904793]}},{"@id":1098,"type":"Feature","properties":{"title":"Downhouse Farm","url":"https://archaeologydataservice.ac.uk/archives/view/romangl/maprecord.cfm?id=1098"},"geometry":{"type":"Point","coordinates":[0.52390892,51.685274]}},{"@id":1099,"type":"Feature","properties":{"title":"Heybridge, Oak Tree Meadow","url":"https://archaeologydataservice.ac.uk/archives/view/romangl/maprecord.cfm?id=1099"},"geometry":{"type":"Point","coordinates":[0.67646373,51.737502]}},{"@id":1100,"type":"Feature","properties":{"title":"Kell Field, Petches Yew Farm, Finchingfield","url":"https://archaeologydataservice.ac.uk/archives/view/romangl/maprecord.cfm?id=1100"},"geometry":{"type":"Point","coordinates":[0.47301451,51.947899]}},{"@id":1101,"type":"Feature","properties":{"title":"Old Hall and Generals Farm, Boreham","url":"https://archaeologydataservice.ac.uk/archives/view/romangl/maprecord.cfm?id=1101"},"geometry":{"type":"Point","coordinates":[0.55715088,51.750079]}},{"@id":1102,"type":"Feature","properties":{"title":"Dry Street, Basildon","url":"https://archaeologydataservice.ac.uk/archives/view/romangl/maprecord.cfm?id=1102"},"geometry":{"type":"Point","coordinates":[0.44651847,51.556358]}},{"@id":1103,"type":"Feature","properties":{"title":"Great Dunmow, St Mary's Primary School","url":"https://archaeologydataservice.ac.uk/archives/view/romangl/maprecord.cfm?id=1103"},"geometry":{"type":"Point","coordinates":[0.35751914,51.871134]}},{"@id":1104,"type":"Feature","properties":{"title":"White Notley","url":"https://archaeologydataservice.ac.uk/archives/view/romangl/maprecord.cfm?id=1104"},"geometry":{"type":"Point","coordinates":[0.58536548,51.836093]}},{"@id":1105,"type":"Feature","properties":{"title":"Stanway","url":"https://archaeologydataservice.ac.uk/archives/view/romangl/maprecord.cfm?id=1105"},"geometry":{"type":"Point","coordinates":[0.83817957,51.86771]}},{"@id":1106,"type":"Feature","properties":{"title":"Gosbecks, Colchester","url":"https://archaeologydataservice.ac.uk/archives/view/romangl/maprecord.cfm?id=1106"},"geometry":{"type":"Point","coordinates":[0.85690186,51.865817]}},{"@id":1107,"type":"Feature","properties":{"title":"Passingford","url":"https://archaeologydataservice.ac.uk/archives/view/romangl/maprecord.cfm?id=1107"},"geometry":{"type":"Point","coordinates":[0.18871826,51.655516]}},{"@id":1108,"type":"Feature","properties":{"title":"Hob's Hole","url":"https://archaeologydataservice.ac.uk/archives/view/romangl/maprecord.cfm?id=1108"},"geometry":{"type":"Point","coordinates":[0.29020701,51.572195]}},{"@id":1109,"type":"Feature","properties":{"title":"Heybridge, Elms Farm","url":"https://archaeologydataservice.ac.uk/archives/view/romangl/maprecord.cfm?id=1109"},"geometry":{"type":"Point","coordinates":[0.67685783,51.741963]}},{"@id":1110,"type":"Feature","properties":{"title":"Rawreth","url":"https://archaeologydataservice.ac.uk/archives/view/romangl/maprecord.cfm?id=1110"},"geometry":{"type":"Point","coordinates":[0.56230321,51.607028]}},{"@id":1111,"type":"Feature","properties":{"title":"Braintree, 51-57 Rayne Road","url":"https://archaeologydataservice.ac.uk/archives/view/romangl/maprecord.cfm?id=1111"},"geometry":{"type":"Point","coordinates":[0.54546015,51.878808]}},{"@id":1112,"type":"Feature","properties":{"title":"Kirkee McMunn barracks, Colchester","url":"https://archaeologydataservice.ac.uk/archives/view/romangl/maprecord.cfm?id=1112"},"geometry":{"type":"Point","coordinates":[0.88568545,51.872255]}},{"@id":1113,"type":"Feature","properties":{"title":"Ambresbury Banks, Epping","url":"https://archaeologydataservice.ac.uk/archives/view/romangl/maprecord.cfm?id=1113"},"geometry":{"type":"Point","coordinates":[0.077208887,51.683081]}},{"@id":1114,"type":"Feature","properties":{"title":"Great Dunmow, Haslers Lane","url":"https://archaeologydataservice.ac.uk/archives/view/romangl/maprecord.cfm?id=1114"},"geometry":{"type":"Point","coordinates":[0.36494709,51.868727]}},{"@id":1115,"type":"Feature","properties":{"title":"Stanley Road, Great Chesterford","url":"https://archaeologydataservice.ac.uk/archives/view/romangl/maprecord.cfm?id=1115"},"geometry":{"type":"Point","coordinates":[0.20142551,52.065696]}},{"@id":1116,"type":"Feature","properties":{"title":"East View Close, Radwinter","url":"https://archaeologydataservice.ac.uk/archives/view/romangl/maprecord.cfm?id=1116"},"geometry":{"type":"Point","coordinates":[0.34240908,52.012673]}},{"@id":1117,"type":"Feature","properties":{"title":"Bradwell Trout Farm, The Slades, Cuthedge Lane, Bradwell","url":"https://archaeologydataservice.ac.uk/archives/view/romangl/maprecord.cfm?id=1117"},"geometry":{"type":"Point","coordinates":[0.64791037,51.868605]}},{"@id":2001,"type":"Feature","properties":{"title":"Duxford","url":"https://archaeologydataservice.ac.uk/archives/view/romangl/maprecord.cfm?id=2001"},"geometry":{"type":"Point","coordinates":[0.15961566,52.091198]}},{"@id":2002,"type":"Feature","properties":{"title":"Little Paxton Quarry","url":"https://archaeologydataservice.ac.uk/archives/view/romangl/maprecord.cfm?id=2002"},"geometry":{"type":"Point","coordinates":[-0.23826708,52.279498]}},{"@id":2003,"type":"Feature","properties":{"title":"Harradine's Farm, Woodhurst","url":"https://archaeologydataservice.ac.uk/archives/view/romangl/maprecord.cfm?id=2003"},"geometry":{"type":"Point","coordinates":[-0.069620577,52.366902]}},{"@id":2004,"type":"Feature","properties":{"title":"Paston, Peterborough","url":"https://archaeologydataservice.ac.uk/archives/view/romangl/maprecord.cfm?id=2004"},"geometry":{"type":"Point","coordinates":[-0.23833416,52.611576]}},{"@id":2005,"type":"Feature","properties":{"title":"Norman Cross","url":"https://archaeologydataservice.ac.uk/archives/view/romangl/maprecord.cfm?id=2005"},"geometry":{"type":"Point","coordinates":[-0.29399407,52.501506]}},{"@id":2006,"type":"Feature","properties":{"title":"Tort Hill (West & East)","url":"https://archaeologydataservice.ac.uk/archives/view/romangl/maprecord.cfm?id=2006"},"geometry":{"type":"Point","coordinates":[-0.27707499,52.447369]}},{"@id":2007,"type":"Feature","properties":{"title":"New Wimpole","url":"https://archaeologydataservice.ac.uk/archives/view/romangl/maprecord.cfm?id=2007"},"geometry":{"type":"Point","coordinates":[-0.039516169,52.127498]}},{"@id":2008,"type":"Feature","properties":{"title":"Foxton","url":"https://archaeologydataservice.ac.uk/archives/view/romangl/maprecord.cfm?id=2008"},"geometry":{"type":"Point","coordinates":[0.044056449,52.114506]}},{"@id":2009,"type":"Feature","properties":{"title":"Ash Plantation (Site 2)","url":"https://archaeologydataservice.ac.uk/archives/view/romangl/maprecord.cfm?id=2009"},"geometry":{"type":"Point","coordinates":[-0.051557008,52.221149]}},{"@id":2010,"type":"Feature","properties":{"title":"Bourn Airfield (Site 3)","url":"https://archaeologydataservice.ac.uk/archives/view/romangl/maprecord.cfm?id=2010"},"geometry":{"type":"Point","coordinates":[-0.038360639,52.219608]}},{"@id":2011,"type":"Feature","properties":{"title":"Childerley gate (Site 5)","url":"https://archaeologydataservice.ac.uk/archives/view/romangl/maprecord.cfm?id=2011"},"geometry":{"type":"Point","coordinates":[-0.010946317,52.220121]}},{"@id":2012,"type":"Feature","properties":{"title":"Orton Longueville","url":"https://archaeologydataservice.ac.uk/archives/view/romangl/maprecord.cfm?id=2012"},"geometry":{"type":"Point","coordinates":[-0.28135516,52.542619]}},{"@id":2013,"type":"Feature","properties":{"title":"Orton hall Farm","url":"https://archaeologydataservice.ac.uk/archives/view/romangl/maprecord.cfm?id=2013"},"geometry":{"type":"Point","coordinates":[-0.26651064,52.545099]}},{"@id":2014,"type":"Feature","properties":{"title":"Plant's Farm, Maxey","url":"https://archaeologydataservice.ac.uk/archives/view/romangl/maprecord.cfm?id=2014"},"geometry":{"type":"Point","coordinates":[-0.35272855,52.65796]}},{"@id":2015,"type":"Feature","properties":{"title":"Barnack","url":"https://archaeologydataservice.ac.uk/archives/view/romangl/maprecord.cfm?id=2015"},"geometry":{"type":"Point","coordinates":[-0.40367217,52.646376]}},{"@id":2016,"type":"Feature","properties":{"title":"Swavesey","url":"https://archaeologydataservice.ac.uk/archives/view/romangl/maprecord.cfm?id=2016"},"geometry":{"type":"Point","coordinates":[-0.002785168,52.30668]}},{"@id":2017,"type":"Feature","properties":{"title":"Windmill","url":"https://archaeologydataservice.ac.uk/archives/view/romangl/maprecord.cfm?id=2017"},"geometry":{"type":"Point","coordinates":[0.024259701,52.300474]}},{"@id":2018,"type":"Feature","properties":{"title":"Arbury","url":"https://archaeologydataservice.ac.uk/archives/view/romangl/maprecord.cfm?id=2018"},"geometry":{"type":"Point","coordinates":[0.12903899,52.235302]}},{"@id":2019,"type":"Feature","properties":{"title":"Scotland Farm","url":"https://archaeologydataservice.ac.uk/archives/view/romangl/maprecord.cfm?id=2019"},"geometry":{"type":"Point","coordinates":[-0.00135783,52.22271]}},{"@id":2020,"type":"Feature","properties":{"title":"Bluntisham","url":"https://archaeologydataservice.ac.uk/archives/view/romangl/maprecord.cfm?id=2020"},"geometry":{"type":"Point","coordinates":[0.008578499,52.351931]}},{"@id":2021,"type":"Feature","properties":{"title":"Bartlow Park/Hills","url":"https://archaeologydataservice.ac.uk/archives/view/romangl/maprecord.cfm?id=2021"},"geometry":{"type":"Point","coordinates":[0.31385221,52.079979]}},{"@id":2022,"type":"Feature","properties":{"title":"Blackhorse Lane, Swavesey","url":"https://archaeologydataservice.ac.uk/archives/view/romangl/maprecord.cfm?id=2022"},"geometry":{"type":"Point","coordinates":[-0.006950314,52.300492]}},{"@id":2023,"type":"Feature","properties":{"title":"Cedar Close, March","url":"https://archaeologydataservice.ac.uk/archives/view/romangl/maprecord.cfm?id=2023"},"geometry":{"type":"Point","coordinates":[0.096023479,52.554969]}},{"@id":2024,"type":"Feature","properties":{"title":"Hutchison Site, Addenbrookes","url":"https://archaeologydataservice.ac.uk/archives/view/romangl/maprecord.cfm?id=2024"},"geometry":{"type":"Point","coordinates":[0.13744379,52.177026]}},{"@id":2025,"type":"Feature","properties":{"title":"Rectory Farm, Great Shelford","url":"https://archaeologydataservice.ac.uk/archives/view/romangl/maprecord.cfm?id=2025"},"geometry":{"type":"Point","coordinates":[0.11065738,52.151881]}},{"@id":2026,"type":"Feature","properties":{"title":"Hurst Lane Reservoir, Ely","url":"https://archaeologydataservice.ac.uk/archives/view/romangl/maprecord.cfm?id=2026"},"geometry":{"type":"Point","coordinates":[0.2392812,52.410609]}},{"@id":2027,"type":"Feature","properties":{"title":"Parnwell, Peterborough","url":"https://archaeologydataservice.ac.uk/archives/view/romangl/maprecord.cfm?id=2027"},"geometry":{"type":"Point","coordinates":[-0.20176028,52.593988]}},{"@id":2028,"type":"Feature","properties":{"title":"Parson Drove","url":"https://archaeologydataservice.ac.uk/archives/view/romangl/maprecord.cfm?id=2028"},"geometry":{"type":"Point","coordinates":[0.030494799,52.656454]}},{"@id":2029,"type":"Feature","properties":{"title":"Haddon","url":"https://archaeologydataservice.ac.uk/archives/view/romangl/maprecord.cfm?id=2029"},"geometry":{"type":"Point","coordinates":[-0.32246068,52.531232]}},{"@id":2030,"type":"Feature","properties":{"title":"Maxey, Bardyke Field","url":"https://archaeologydataservice.ac.uk/archives/view/romangl/maprecord.cfm?id=2030"},"geometry":{"type":"Point","coordinates":[-0.3382928,52.655367]}},{"@id":2031,"type":"Feature","properties":{"title":"Wardy Hill","url":"https://archaeologydataservice.ac.uk/archives/view/romangl/maprecord.cfm?id=2031"},"geometry":{"type":"Point","coordinates":[0.16309638,52.415921]}},{"@id":2032,"type":"Feature","properties":{"title":"Lower Cambourne","url":"https://archaeologydataservice.ac.uk/archives/view/romangl/maprecord.cfm?id=2032"},"geometry":{"type":"Point","coordinates":[-0.082681862,52.217765]}},{"@id":2033,"type":"Feature","properties":{"title":"Poplar Plantation","url":"https://archaeologydataservice.ac.uk/archives/view/romangl/maprecord.cfm?id=2033"},"geometry":{"type":"Point","coordinates":[-0.075250221,52.21697]}},{"@id":2034,"type":"Feature","properties":{"title":"Mill Farm","url":"https://archaeologydataservice.ac.uk/archives/view/romangl/maprecord.cfm?id=2034"},"geometry":{"type":"Point","coordinates":[-0.074973946,52.209817]}},{"@id":2035,"type":"Feature","properties":{"title":"Knapwell Plantation","url":"https://archaeologydataservice.ac.uk/archives/view/romangl/maprecord.cfm?id=2035"},"geometry":{"type":"Point","coordinates":[-0.066004699,52.224237]}},{"@id":2036,"type":"Feature","properties":{"title":"Jeavsons Lane","url":"https://archaeologydataservice.ac.uk/archives/view/romangl/maprecord.cfm?id=2036"},"geometry":{"type":"Point","coordinates":[-0.066022559,52.213717]}},{"@id":2037,"type":"Feature","properties":{"title":"Broadway Farm","url":"https://archaeologydataservice.ac.uk/archives/view/romangl/maprecord.cfm?id=2037"},"geometry":{"type":"Point","coordinates":[-0.066846614,52.206537]}},{"@id":2038,"type":"Feature","properties":{"title":"Little Common Farm","url":"https://archaeologydataservice.ac.uk/archives/view/romangl/maprecord.cfm?id=2038"},"geometry":{"type":"Point","coordinates":[-0.05265655,52.214756]}},{"@id":2039,"type":"Feature","properties":{"title":"The Fields","url":"https://archaeologydataservice.ac.uk/archives/view/romangl/maprecord.cfm?id=2039"},"geometry":{"type":"Point","coordinates":[-0.052735147,52.212959]}},{"@id":2040,"type":"Feature","properties":{"title":"The Grange","url":"https://archaeologydataservice.ac.uk/archives/view/romangl/maprecord.cfm?id=2040"},"geometry":{"type":"Point","coordinates":[-0.050904414,52.21131]}},{"@id":2041,"type":"Feature","properties":{"title":"Stonea Camp","url":"https://archaeologydataservice.ac.uk/archives/view/romangl/maprecord.cfm?id=2041"},"geometry":{"type":"Point","coordinates":[0.1316835,52.516416]}},{"@id":2042,"type":"Feature","properties":{"title":"Stonea Grange","url":"https://archaeologydataservice.ac.uk/archives/view/romangl/maprecord.cfm?id=2042"},"geometry":{"type":"Point","coordinates":[0.13453571,52.521741]}},{"@id":2043,"type":"Feature","properties":{"title":"Watersmeet, Mill Common, Huntingdon","url":"https://archaeologydataservice.ac.uk/archives/view/romangl/maprecord.cfm?id=2043"},"geometry":{"type":"Point","coordinates":[-0.18249128,52.326342]}},{"@id":2044,"type":"Feature","properties":{"title":"Gallows Hill, Swaffham Prior","url":"https://archaeologydataservice.ac.uk/archives/view/romangl/maprecord.cfm?id=2044"},"geometry":{"type":"Point","coordinates":[0.31038529,52.254245]}},{"@id":2045,"type":"Feature","properties":{"title":"South of Tunbridge lane, Bottisham","url":"https://archaeologydataservice.ac.uk/archives/view/romangl/maprecord.cfm?id=2045"},"geometry":{"type":"Point","coordinates":[0.26098949,52.225078]}},{"@id":2046,"type":"Feature","properties":{"title":"Eaton Socon","url":"https://archaeologydataservice.ac.uk/archives/view/romangl/maprecord.cfm?id=2046"},"geometry":{"type":"Point","coordinates":[-0.29207321,52.208753]}},{"@id":2047,"type":"Feature","properties":{"title":"Prickwillow Road, Ely","url":"https://archaeologydataservice.ac.uk/archives/view/romangl/maprecord.cfm?id=2047"},"geometry":{"type":"Point","coordinates":[0.28163835,52.407668]}},{"@id":2048,"type":"Feature","properties":{"title":"Little Paxton Quarry shrine","url":"https://archaeologydataservice.ac.uk/archives/view/romangl/maprecord.cfm?id=2048"},"geometry":{"type":"Point","coordinates":[-0.23432138,52.277344]}},{"@id":2049,"type":"Feature","properties":{"title":"Penfold Farm, Milton","url":"https://archaeologydataservice.ac.uk/archives/view/romangl/maprecord.cfm?id=2049"},"geometry":{"type":"Point","coordinates":[0.18251021,52.249036]}},{"@id":2050,"type":"Feature","properties":{"title":"Edix Hill, Barrington","url":"https://archaeologydataservice.ac.uk/archives/view/romangl/maprecord.cfm?id=2050"},"geometry":{"type":"Point","coordinates":[-0.000261557,52.130067]}},{"@id":2051,"type":"Feature","properties":{"title":"Madingley","url":"https://archaeologydataservice.ac.uk/archives/view/romangl/maprecord.cfm?id=2051"},"geometry":{"type":"Point","coordinates":[0.049871949,52.219224]}},{"@id":2052,"type":"Feature","properties":{"title":"Wimpole","url":"https://archaeologydataservice.ac.uk/archives/view/romangl/maprecord.cfm?id=2052"},"geometry":{"type":"Point","coordinates":[-0.05514368,52.122578]}},{"@id":2053,"type":"Feature","properties":{"title":"Great Staughton","url":"https://archaeologydataservice.ac.uk/archives/view/romangl/maprecord.cfm?id=2053"},"geometry":{"type":"Point","coordinates":[-0.33927499,52.253844]}},{"@id":2054,"type":"Feature","properties":{"title":"Grandford, March","url":"https://archaeologydataservice.ac.uk/archives/view/romangl/maprecord.cfm?id=2054"},"geometry":{"type":"Point","coordinates":[0.054286005,52.57728]}},{"@id":2055,"type":"Feature","properties":{"title":"Haddenham Iron Age settlement","url":"https://archaeologydataservice.ac.uk/archives/view/romangl/maprecord.cfm?id=2055"},"geometry":{"type":"Point","coordinates":[0.070726222,52.340428]}},{"@id":2056,"type":"Feature","properties":{"title":"Haddenham Roman shrine","url":"https://archaeologydataservice.ac.uk/archives/view/romangl/maprecord.cfm?id=2056"},"geometry":{"type":"Point","coordinates":[0.065924214,52.343227]}},{"@id":2057,"type":"Feature","properties":{"title":"Exning","url":"https://archaeologydataservice.ac.uk/archives/view/romangl/maprecord.cfm?id=2057"},"geometry":{"type":"Point","coordinates":[0.36172604,52.282903]}},{"@id":2058,"type":"Feature","properties":{"title":"Rectory Field, Godmanchester","url":"https://archaeologydataservice.ac.uk/archives/view/romangl/maprecord.cfm?id=2058"},"geometry":{"type":"Point","coordinates":[-0.15841028,52.326329]}},{"@id":2059,"type":"Feature","properties":{"title":"Eaton Ford","url":"https://archaeologydataservice.ac.uk/archives/view/romangl/maprecord.cfm?id=2059"},"geometry":{"type":"Point","coordinates":[-0.28685514,52.230257]}},{"@id":2060,"type":"Feature","properties":{"title":"Greenhouse Farm pottery kilns","url":"https://archaeologydataservice.ac.uk/archives/view/romangl/maprecord.cfm?id=2060"},"geometry":{"type":"Point","coordinates":[0.17945379,52.213574]}},{"@id":2061,"type":"Feature","properties":{"title":"Langwood Farm, Chatteris","url":"https://archaeologydataservice.ac.uk/archives/view/romangl/maprecord.cfm?id=2061"},"geometry":{"type":"Point","coordinates":[0.084977223,52.446368]}},{"@id":2062,"type":"Feature","properties":{"title":"Camp Ground, Colne Fen, Earith","url":"https://archaeologydataservice.ac.uk/archives/view/romangl/maprecord.cfm?id=2062"},"geometry":{"type":"Point","coordinates":[0.022568129,52.384961]}},{"@id":2063,"type":"Feature","properties":{"title":"Queensholme","url":"https://archaeologydataservice.ac.uk/archives/view/romangl/maprecord.cfm?id=2063"},"geometry":{"type":"Point","coordinates":[0.078329717,52.323192]}},{"@id":2064,"type":"Feature","properties":{"title":"Eynesbury","url":"https://archaeologydataservice.ac.uk/archives/view/romangl/maprecord.cfm?id=2064"},"geometry":{"type":"Point","coordinates":[-0.27438075,52.212092]}},{"@id":2065,"type":"Feature","properties":{"title":"Cat's water, Fengate","url":"https://archaeologydataservice.ac.uk/archives/view/romangl/maprecord.cfm?id=2065"},"geometry":{"type":"Point","coordinates":[-0.20740268,52.574393]}},{"@id":2066,"type":"Feature","properties":{"title":"March to Chatteris","url":"https://archaeologydataservice.ac.uk/archives/view/romangl/maprecord.cfm?id=2066"},"geometry":{"type":"Point","coordinates":[0.080846456,52.502008]}},{"@id":2067,"type":"Feature","properties":{"title":"Woolley Hill, Ellington, Huntingdon","url":"https://archaeologydataservice.ac.uk/archives/view/romangl/maprecord.cfm?id=2067"},"geometry":{"type":"Point","coordinates":[-0.29745431,52.34352]}},{"@id":2068,"type":"Feature","properties":{"title":"Waste Management Park, Waterbeach, Cambridge","url":"https://archaeologydataservice.ac.uk/archives/view/romangl/maprecord.cfm?id=2068"},"geometry":{"type":"Point","coordinates":[0.1791583,52.297204]}},{"@id":2069,"type":"Feature","properties":{"title":"Bedford Purlieus Wood, Thornhaugh near Peterborough","url":"https://archaeologydataservice.ac.uk/archives/view/romangl/maprecord.cfm?id=2069"},"geometry":{"type":"Point","coordinates":[-0.45858067,52.587621]}},{"@id":2070,"type":"Feature","properties":{"title":"Maxey Quarry","url":"https://archaeologydataservice.ac.uk/archives/view/romangl/maprecord.cfm?id=2070"},"geometry":{"type":"Point","coordinates":[-0.33822464,52.657164]}},{"@id":2071,"type":"Feature","properties":{"title":"Land off Broadway, Yaxley, Peterborough","url":"https://archaeologydataservice.ac.uk/archives/view/romangl/maprecord.cfm?id=2071"},"geometry":{"type":"Point","coordinates":[-0.24539158,52.523659]}},{"@id":2072,"type":"Feature","properties":{"title":"A15 Werrington to Glinton Bypass","url":"https://archaeologydataservice.ac.uk/archives/view/romangl/maprecord.cfm?id=2072"},"geometry":{"type":"Point","coordinates":[-0.29491079,52.630385]}},{"@id":2073,"type":"Feature","properties":{"title":"Castor (Castor Barns, The Cedars and Time Team)","url":"https://archaeologydataservice.ac.uk/archives/view/romangl/maprecord.cfm?id=2073"},"geometry":{"type":"Point","coordinates":[-0.34218458,52.571987]}},{"@id":2074,"type":"Feature","properties":{"title":"Eye Quarry, Peterborough","url":"https://archaeologydataservice.ac.uk/archives/view/romangl/maprecord.cfm?id=2074"},"geometry":{"type":"Point","coordinates":[-0.16593287,52.605172]}},{"@id":2075,"type":"Feature","properties":{"title":"Land adjacent to Itter Crescent, Peterborough","url":"https://archaeologydataservice.ac.uk/archives/view/romangl/maprecord.cfm?id=2075"},"geometry":{"type":"Point","coordinates":[-0.25617734,52.601141]}},{"@id":2076,"type":"Feature","properties":{"title":"Land adjacent to Oundle Road, Peterborough Business Park","url":"https://archaeologydataservice.ac.uk/archives/view/romangl/maprecord.cfm?id=2076"},"geometry":{"type":"Point","coordinates":[-0.32008663,52.551716]}},{"@id":2077,"type":"Feature","properties":{"title":"Lyndon Farm, High Street, Maxey","url":"https://archaeologydataservice.ac.uk/archives/view/romangl/maprecord.cfm?id=2077"},"geometry":{"type":"Point","coordinates":[-0.35417414,52.657656]}},{"@id":2078,"type":"Feature","properties":{"title":"Land at Manor Drive, Paston, Peterborough","url":"https://archaeologydataservice.ac.uk/archives/view/romangl/maprecord.cfm?id=2078"},"geometry":{"type":"Point","coordinates":[-0.23908445,52.61165]}},{"@id":2079,"type":"Feature","properties":{"title":"Mayor's Walk, Peterborough","url":"https://archaeologydataservice.ac.uk/archives/view/romangl/maprecord.cfm?id=2079"},"geometry":{"type":"Point","coordinates":[-0.25424854,52.579085]}},{"@id":2080,"type":"Feature","properties":{"title":"Haddon bathhouse","url":"https://archaeologydataservice.ac.uk/archives/view/romangl/maprecord.cfm?id=2080"},"geometry":{"type":"Point","coordinates":[-0.32111538,52.524758]}},{"@id":2081,"type":"Feature","properties":{"title":"Westfield Road, Peterborough","url":"https://archaeologydataservice.ac.uk/archives/view/romangl/maprecord.cfm?id=2081"},"geometry":{"type":"Point","coordinates":[-0.25692637,52.582271]}},{"@id":2082,"type":"Feature","properties":{"title":"Wilberton","url":"https://archaeologydataservice.ac.uk/archives/view/romangl/maprecord.cfm?id=2082"},"geometry":{"type":"Point","coordinates":[0.17406359,52.336602]}},{"@id":2083,"type":"Feature","properties":{"title":"Stow Longa to Tilbrook Pipeline","url":"https://archaeologydataservice.ac.uk/archives/view/romangl/maprecord.cfm?id=2083"},"geometry":{"type":"Point","coordinates":[-0.40022869,52.317138]}},{"@id":2084,"type":"Feature","properties":{"title":"Ely Road/Hill Close, Milton","url":"https://archaeologydataservice.ac.uk/archives/view/romangl/maprecord.cfm?id=2084"},"geometry":{"type":"Point","coordinates":[0.16924222,52.244335]}},{"@id":2085,"type":"Feature","properties":{"title":"Unwins Nursery, Impington","url":"https://archaeologydataservice.ac.uk/archives/view/romangl/maprecord.cfm?id=2085"},"geometry":{"type":"Point","coordinates":[0.11241825,52.250761]}},{"@id":2086,"type":"Feature","properties":{"title":"Over Industrial Estate","url":"https://archaeologydataservice.ac.uk/archives/view/romangl/maprecord.cfm?id=2086"},"geometry":{"type":"Point","coordinates":[0.021099541,52.304512]}},{"@id":2087,"type":"Feature","properties":{"title":"New Road, Haslingfield","url":"https://archaeologydataservice.ac.uk/archives/view/romangl/maprecord.cfm?id=2087"},"geometry":{"type":"Point","coordinates":[0.057340997,52.152734]}},{"@id":2088,"type":"Feature","properties":{"title":"Litlington","url":"https://archaeologydataservice.ac.uk/archives/view/romangl/maprecord.cfm?id=2088"},"geometry":{"type":"Point","coordinates":[-0.087825365,52.065826]}},{"@id":2089,"type":"Feature","properties":{"title":"Stilton","url":"https://archaeologydataservice.ac.uk/archives/view/romangl/maprecord.cfm?id=2089"},"geometry":{"type":"Point","coordinates":[-0.27204767,52.497978]}},{"@id":2090,"type":"Feature","properties":{"title":"15-17 Hay Street, Steeple Morden","url":"https://archaeologydataservice.ac.uk/archives/view/romangl/maprecord.cfm?id=2090"},"geometry":{"type":"Point","coordinates":[-0.12533565,52.066851]}},{"@id":2091,"type":"Feature","properties":{"title":"Downing College, Long Road, Cambridge","url":"https://archaeologydataservice.ac.uk/archives/view/romangl/maprecord.cfm?id=2091"},"geometry":{"type":"Point","coordinates":[0.13669158,52.17659]}},{"@id":2092,"type":"Feature","properties":{"title":"Whiteland Spring, Bottisham","url":"https://archaeologydataservice.ac.uk/archives/view/romangl/maprecord.cfm?id=2092"},"geometry":{"type":"Point","coordinates":[0.27789742,52.220707]}},{"@id":2093,"type":"Feature","properties":{"title":"Longhill Road, March","url":"https://archaeologydataservice.ac.uk/archives/view/romangl/maprecord.cfm?id=2093"},"geometry":{"type":"Point","coordinates":[0.086601263,52.574018]}},{"@id":2094,"type":"Feature","properties":{"title":"Langdale Hale, Earith, Colne Fen","url":"https://archaeologydataservice.ac.uk/archives/view/romangl/maprecord.cfm?id=2094"},"geometry":{"type":"Point","coordinates":[0.030039194,52.375805]}},{"@id":2095,"type":"Feature","properties":{"title":"The Holme, Colne Fen, Earith","url":"https://archaeologydataservice.ac.uk/archives/view/romangl/maprecord.cfm?id=2095"},"geometry":{"type":"Point","coordinates":[0.033390432,52.370722]}},{"@id":2096,"type":"Feature","properties":{"title":"New Fen Drove, Earith","url":"https://archaeologydataservice.ac.uk/archives/view/romangl/maprecord.cfm?id=2096"},"geometry":{"type":"Point","coordinates":[0.042476881,52.364208]}},{"@id":2097,"type":"Feature","properties":{"title":"Knobbs Farm, Somersham","url":"https://archaeologydataservice.ac.uk/archives/view/romangl/maprecord.cfm?id=2097"},"geometry":{"type":"Point","coordinates":[0.009088088,52.395531]}},{"@id":2098,"type":"Feature","properties":{"title":"High Cross, Cambridge","url":"https://archaeologydataservice.ac.uk/archives/view/romangl/maprecord.cfm?id=2098"},"geometry":{"type":"Point","coordinates":[0.093267475,52.211178]}},{"@id":2099,"type":"Feature","properties":{"title":"Hinxton Quarry, Cambridge","url":"https://archaeologydataservice.ac.uk/archives/view/romangl/maprecord.cfm?id=2099"},"geometry":{"type":"Point","coordinates":[0.16942304,52.097762]}},{"@id":2100,"type":"Feature","properties":{"title":"Low Fen, Fen Drayton","url":"https://archaeologydataservice.ac.uk/archives/view/romangl/maprecord.cfm?id=2100"},"geometry":{"type":"Point","coordinates":[-0.039834702,52.303111]}},{"@id":2101,"type":"Feature","properties":{"title":"Land off Huntingdon Road, Cambridge","url":"https://archaeologydataservice.ac.uk/archives/view/romangl/maprecord.cfm?id=2101"},"geometry":{"type":"Point","coordinates":[0.10245867,52.226031]}},{"@id":2102,"type":"Feature","properties":{"title":"East of Godmanchester","url":"https://archaeologydataservice.ac.uk/archives/view/romangl/maprecord.cfm?id=2102"},"geometry":{"type":"Point","coordinates":[-0.15758695,52.315769]}},{"@id":2103,"type":"Feature","properties":{"title":"Bob's Wood, The Stukeleys, Hinchingbrooke","url":"https://archaeologydataservice.ac.uk/archives/view/romangl/maprecord.cfm?id=2103"},"geometry":{"type":"Point","coordinates":[-0.2090869,52.337125]}},{"@id":2104,"type":"Feature","properties":{"title":"Ely, Stirling Way near Witchford","url":"https://archaeologydataservice.ac.uk/archives/view/romangl/maprecord.cfm?id=2104"},"geometry":{"type":"Point","coordinates":[0.22473598,52.387173]}},{"@id":2105,"type":"Feature","properties":{"title":"Cottenham to Landbeach","url":"https://archaeologydataservice.ac.uk/archives/view/romangl/maprecord.cfm?id=2105"},"geometry":{"type":"Point","coordinates":[0.15818884,52.29063]}},{"@id":2106,"type":"Feature","properties":{"title":"Needingworth Bypass","url":"https://archaeologydataservice.ac.uk/archives/view/romangl/maprecord.cfm?id=2106"},"geometry":{"type":"Point","coordinates":[-0.046986571,52.332901]}},{"@id":2107,"type":"Feature","properties":{"title":"Great Haddon","url":"https://archaeologydataservice.ac.uk/archives/view/romangl/maprecord.cfm?id=2107"},"geometry":{"type":"Point","coordinates":[-0.28487913,52.508954]}},{"@id":2108,"type":"Feature","properties":{"title":"Bannold Lodge, Chittering","url":"https://archaeologydataservice.ac.uk/archives/view/romangl/maprecord.cfm?id=2108"},"geometry":{"type":"Point","coordinates":[0.19816216,52.299505]}},{"@id":2109,"type":"Feature","properties":{"title":"Linton Roman Villa","url":"https://archaeologydataservice.ac.uk/archives/view/romangl/maprecord.cfm?id=2109"},"geometry":{"type":"Point","coordinates":[0.29176519,52.091849]}},{"@id":2110,"type":"Feature","properties":{"title":"Vicar's Farm, West Cambridge","url":"https://archaeologydataservice.ac.uk/archives/view/romangl/maprecord.cfm?id=2110"},"geometry":{"type":"Point","coordinates":[0.094369879,52.20972]}},{"@id":2111,"type":"Feature","properties":{"title":"Linton Village College","url":"https://archaeologydataservice.ac.uk/archives/view/romangl/maprecord.cfm?id=2111"},"geometry":{"type":"Point","coordinates":[0.27096449,52.099086]}},{"@id":2112,"type":"Feature","properties":{"title":"Great Wilbraham","url":"https://archaeologydataservice.ac.uk/archives/view/romangl/maprecord.cfm?id=2112"},"geometry":{"type":"Point","coordinates":[0.27382483,52.198305]}},{"@id":2113,"type":"Feature","properties":{"title":"Milton, East Waste","url":"https://archaeologydataservice.ac.uk/archives/view/romangl/maprecord.cfm?id=2113"},"geometry":{"type":"Point","coordinates":[0.14418832,52.241196]}},{"@id":2114,"type":"Feature","properties":{"title":"HMP Littlehey, Perry","url":"https://archaeologydataservice.ac.uk/archives/view/romangl/maprecord.cfm?id=2114"},"geometry":{"type":"Point","coordinates":[-0.31575136,52.279226]}},{"@id":2115,"type":"Feature","properties":{"title":"Fenstanton","url":"https://archaeologydataservice.ac.uk/archives/view/romangl/maprecord.cfm?id=2115"},"geometry":{"type":"Point","coordinates":[-0.066635619,52.300675]}},{"@id":2116,"type":"Feature","properties":{"title":"Black Horse Farm, Sawtry","url":"https://archaeologydataservice.ac.uk/archives/view/romangl/maprecord.cfm?id=2116"},"geometry":{"type":"Point","coordinates":[-0.27066209,52.43565]}},{"@id":2117,"type":"Feature","properties":{"title":"Clay Farm, Trumpington","url":"https://archaeologydataservice.ac.uk/archives/view/romangl/maprecord.cfm?id=2117"},"geometry":{"type":"Point","coordinates":[0.12155855,52.175775]}},{"@id":2118,"type":"Feature","properties":{"title":"Love's Farm St Neots","url":"https://archaeologydataservice.ac.uk/archives/view/romangl/maprecord.cfm?id=2118"},"geometry":{"type":"Point","coordinates":[-0.2424547,52.242192]}},{"@id":2119,"type":"Feature","properties":{"title":"Granhams Farm Golf Course","url":"https://archaeologydataservice.ac.uk/archives/view/romangl/maprecord.cfm?id=2119"},"geometry":{"type":"Point","coordinates":[0.14029929,52.160339]}},{"@id":2120,"type":"Feature","properties":{"title":"Hinxton","url":"https://archaeologydataservice.ac.uk/archives/view/romangl/maprecord.cfm?id=2120"},"geometry":{"type":"Point","coordinates":[0.18693651,52.067764]}},{"@id":2121,"type":"Feature","properties":{"title":"31 Tunbridge lane, Bottisham","url":"https://archaeologydataservice.ac.uk/archives/view/romangl/maprecord.cfm?id=2121"},"geometry":{"type":"Point","coordinates":[0.2593667,52.22484]}},{"@id":2122,"type":"Feature","properties":{"title":"Meadow lane, St Ives, Cambs","url":"https://archaeologydataservice.ac.uk/archives/view/romangl/maprecord.cfm?id=2122"},"geometry":{"type":"Point","coordinates":[-0.051673661,52.317424]}},{"@id":2123,"type":"Feature","properties":{"title":"Bourn Bridge, Pampisford","url":"https://archaeologydataservice.ac.uk/archives/view/romangl/maprecord.cfm?id=2123"},"geometry":{"type":"Point","coordinates":[0.2130156,52.123028]}},{"@id":2124,"type":"Feature","properties":{"title":"Fen Drayton Reservoir","url":"https://archaeologydataservice.ac.uk/archives/view/romangl/maprecord.cfm?id=2124"},"geometry":{"type":"Point","coordinates":[-0.044839005,52.30305]}},{"@id":2125,"type":"Feature","properties":{"title":"Owl's End Road, Bury","url":"https://archaeologydataservice.ac.uk/archives/view/romangl/maprecord.cfm?id=2125"},"geometry":{"type":"Point","coordinates":[-0.11264041,52.4362]}},{"@id":2126,"type":"Feature","properties":{"title":"Stonald Field, King's Dyke West, Whittlesey","url":"https://archaeologydataservice.ac.uk/archives/view/romangl/maprecord.cfm?id=2126"},"geometry":{"type":"Point","coordinates":[-0.16901981,52.566559]}},{"@id":2127,"type":"Feature","properties":{"title":"Bradley Fen, Whittlesey","url":"https://archaeologydataservice.ac.uk/archives/view/romangl/maprecord.cfm?id=2127"},"geometry":{"type":"Point","coordinates":[-0.17945337,52.564022]}},{"@id":2128,"type":"Feature","properties":{"title":"ARES Site, Babraham","url":"https://archaeologydataservice.ac.uk/archives/view/romangl/maprecord.cfm?id=2128"},"geometry":{"type":"Point","coordinates":[0.20410502,52.134885]}},{"@id":2129,"type":"Feature","properties":{"title":"Roman cemetery, Babraham","url":"https://archaeologydataservice.ac.uk/archives/view/romangl/maprecord.cfm?id=2129"},"geometry":{"type":"Point","coordinates":[0.20597273,52.134239]}},{"@id":2130,"type":"Feature","properties":{"title":"Coton to Bourn Booster Pipeline","url":"https://archaeologydataservice.ac.uk/archives/view/romangl/maprecord.cfm?id=2130"},"geometry":{"type":"Point","coordinates":[-0.04120504,52.222173]}},{"@id":2131,"type":"Feature","properties":{"title":"North-west Cambridge Site II/RB 1","url":"https://archaeologydataservice.ac.uk/archives/view/romangl/maprecord.cfm?id=2131"},"geometry":{"type":"Point","coordinates":[0.088668051,52.218597]}},{"@id":2132,"type":"Feature","properties":{"title":"North-west Cambridge Sites IV-V (RB2)","url":"https://archaeologydataservice.ac.uk/archives/view/romangl/maprecord.cfm?id=2132"},"geometry":{"type":"Point","coordinates":[0.083172876,52.224116]}},{"@id":2133,"type":"Feature","properties":{"title":"North-west Cambridge Site VI","url":"https://archaeologydataservice.ac.uk/archives/view/romangl/maprecord.cfm?id=2133"},"geometry":{"type":"Point","coordinates":[0.07699682,52.22543]}},{"@id":2134,"type":"Feature","properties":{"title":"North-west Cambridge Site VII","url":"https://archaeologydataservice.ac.uk/archives/view/romangl/maprecord.cfm?id=2134"},"geometry":{"type":"Point","coordinates":[0.082483769,52.215334]}},{"@id":2135,"type":"Feature","properties":{"title":"A14 Ellington to Fen Ditton Site 3","url":"https://archaeologydataservice.ac.uk/archives/view/romangl/maprecord.cfm?id=2135"},"geometry":{"type":"Point","coordinates":[-0.2460296,52.314562]}},{"@id":2136,"type":"Feature","properties":{"title":"A14 Ellington to Fen Ditton Site 14","url":"https://archaeologydataservice.ac.uk/archives/view/romangl/maprecord.cfm?id=2136"},"geometry":{"type":"Point","coordinates":[-0.20603026,52.299845]}},{"@id":2137,"type":"Feature","properties":{"title":"A14 Ellington to Fen Ditton Site 20","url":"https://archaeologydataservice.ac.uk/archives/view/romangl/maprecord.cfm?id=2137"},"geometry":{"type":"Point","coordinates":[0.063860059,52.234841]}},{"@id":2138,"type":"Feature","properties":{"title":"Newmarket Road, Cambridge","url":"https://archaeologydataservice.ac.uk/archives/view/romangl/maprecord.cfm?id=2138"},"geometry":{"type":"Point","coordinates":[0.17161911,52.21201]}},{"@id":2139,"type":"Feature","properties":{"title":"Impington King Hedges Farm","url":"https://archaeologydataservice.ac.uk/archives/view/romangl/maprecord.cfm?id=2139"},"geometry":{"type":"Point","coordinates":[0.12925246,52.235172]}},{"@id":2140,"type":"Feature","properties":{"title":"Landbeach, Car Dyke Farm (Akeman Street)","url":"https://archaeologydataservice.ac.uk/archives/view/romangl/maprecord.cfm?id=2140"},"geometry":{"type":"Point","coordinates":[0.16039428,52.273271]}},{"@id":2141,"type":"Feature","properties":{"title":"Littleport, Camel Road","url":"https://archaeologydataservice.ac.uk/archives/view/romangl/maprecord.cfm?id=2141"},"geometry":{"type":"Point","coordinates":[0.3034723,52.459847]}},{"@id":2142,"type":"Feature","properties":{"title":"Wimblington Road, March","url":"https://archaeologydataservice.ac.uk/archives/view/romangl/maprecord.cfm?id=2142"},"geometry":{"type":"Point","coordinates":[0.084995535,52.533945]}},{"@id":2143,"type":"Feature","properties":{"title":"Werrington","url":"https://archaeologydataservice.ac.uk/archives/view/romangl/maprecord.cfm?id=2143"},"geometry":{"type":"Point","coordinates":[-0.27845982,52.620347]}},{"@id":2144,"type":"Feature","properties":{"title":"Throckenholt Farm, Parson Drove","url":"https://archaeologydataservice.ac.uk/archives/view/romangl/maprecord.cfm?id=2144"},"geometry":{"type":"Point","coordinates":[0.002054482,52.661793]}},{"@id":2145,"type":"Feature","properties":{"title":"Peterborough, Whittlesey Reinforcement Main","url":"https://archaeologydataservice.ac.uk/archives/view/romangl/maprecord.cfm?id=2145"},"geometry":{"type":"Point","coordinates":[-0.19946557,52.54551]}},{"@id":2146,"type":"Feature","properties":{"title":"Airport Way, Teversham","url":"https://archaeologydataservice.ac.uk/archives/view/romangl/maprecord.cfm?id=2146"},"geometry":{"type":"Point","coordinates":[0.19097265,52.209674]}},{"@id":2147,"type":"Feature","properties":{"title":"Car Dyke, Waterbeach","url":"https://archaeologydataservice.ac.uk/archives/view/romangl/maprecord.cfm?id=2147"},"geometry":{"type":"Point","coordinates":[0.19030693,52.255635]}},{"@id":2148,"type":"Feature","properties":{"title":"Waterbeach, Cambridge Rowing Lake","url":"https://archaeologydataservice.ac.uk/archives/view/romangl/maprecord.cfm?id=2148"},"geometry":{"type":"Point","coordinates":[0.18385076,52.25187]}},{"@id":2149,"type":"Feature","properties":{"title":"Bretton Way, Peterborough","url":"https://archaeologydataservice.ac.uk/archives/view/romangl/maprecord.cfm?id=2149"},"geometry":{"type":"Point","coordinates":[-0.28807616,52.592723]}},{"@id":2150,"type":"Feature","properties":{"title":"West End, Haddenham","url":"https://archaeologydataservice.ac.uk/archives/view/romangl/maprecord.cfm?id=2150"},"geometry":{"type":"Point","coordinates":[0.14441799,52.358265]}},{"@id":2151,"type":"Feature","properties":{"title":"Longstanton site XIX","url":"https://archaeologydataservice.ac.uk/archives/view/romangl/maprecord.cfm?id=2151"},"geometry":{"type":"Point","coordinates":[0.0598307,52.283809]}},{"@id":2152,"type":"Feature","properties":{"title":"Longstanton site XVIII","url":"https://archaeologydataservice.ac.uk/archives/view/romangl/maprecord.cfm?id=2152"},"geometry":{"type":"Point","coordinates":[0.068070017,52.280652]}},{"@id":2153,"type":"Feature","properties":{"title":"Longstanton site XX","url":"https://archaeologydataservice.ac.uk/archives/view/romangl/maprecord.cfm?id=2153"},"geometry":{"type":"Point","coordinates":[0.043347573,52.291055]}},{"@id":2154,"type":"Feature","properties":{"title":"Longstanton site XII","url":"https://archaeologydataservice.ac.uk/archives/view/romangl/maprecord.cfm?id=2154"},"geometry":{"type":"Point","coordinates":[0.02728909,52.259861]}},{"@id":2155,"type":"Feature","properties":{"title":"Newnham College, Cambridge","url":"https://archaeologydataservice.ac.uk/archives/view/romangl/maprecord.cfm?id=2155"},"geometry":{"type":"Point","coordinates":[0.10709422,52.200232]}},{"@id":2156,"type":"Feature","properties":{"title":"Northbridge, Huntingdon","url":"https://archaeologydataservice.ac.uk/archives/view/romangl/maprecord.cfm?id=2156"},"geometry":{"type":"Point","coordinates":[-0.20677743,52.345955]}},{"@id":2157,"type":"Feature","properties":{"title":"Papworth Everard Bypass","url":"https://archaeologydataservice.ac.uk/archives/view/romangl/maprecord.cfm?id=2157"},"geometry":{"type":"Point","coordinates":[-0.12020326,52.258291]}},{"@id":2158,"type":"Feature","properties":{"title":"Fordham Road Allotments, Soham","url":"https://archaeologydataservice.ac.uk/archives/view/romangl/maprecord.cfm?id=2158"},"geometry":{"type":"Point","coordinates":[0.35014237,52.327196]}},{"@id":2159,"type":"Feature","properties":{"title":"Earith Road, Willingham","url":"https://archaeologydataservice.ac.uk/archives/view/romangl/maprecord.cfm?id=2159"},"geometry":{"type":"Point","coordinates":[0.05876804,52.316539]}},{"@id":2160,"type":"Feature","properties":{"title":"West Fen Road, Ely","url":"https://archaeologydataservice.ac.uk/archives/view/romangl/maprecord.cfm?id=2160"},"geometry":{"type":"Point","coordinates":[0.24758423,52.404445]}},{"@id":2161,"type":"Feature","properties":{"title":"Tower Works, Fengate West","url":"https://archaeologydataservice.ac.uk/archives/view/romangl/maprecord.cfm?id=2161"},"geometry":{"type":"Point","coordinates":[-0.21925995,52.572765]}},{"@id":2162,"type":"Feature","properties":{"title":"West Fen Road, Ely: The Ashwell site","url":"https://archaeologydataservice.ac.uk/archives/view/romangl/maprecord.cfm?id=2162"},"geometry":{"type":"Point","coordinates":[0.24615741,52.403852]}},{"@id":2163,"type":"Feature","properties":{"title":"East of Hinxton Grange","url":"https://archaeologydataservice.ac.uk/archives/view/romangl/maprecord.cfm?id=2163"},"geometry":{"type":"Point","coordinates":[0.20465311,52.095669]}},{"@id":2164,"type":"Feature","properties":{"title":"Brampton Road, Buckden","url":"https://archaeologydataservice.ac.uk/archives/view/romangl/maprecord.cfm?id=2164"},"geometry":{"type":"Point","coordinates":[-0.23658238,52.305313]}},{"@id":2165,"type":"Feature","properties":{"title":"War Ditches, Cherry Hinton","url":"https://archaeologydataservice.ac.uk/archives/view/romangl/maprecord.cfm?id=2165"},"geometry":{"type":"Point","coordinates":[0.16892823,52.1778]}},{"@id":2166,"type":"Feature","properties":{"title":"Papworth Everard Business Park","url":"https://archaeologydataservice.ac.uk/archives/view/romangl/maprecord.cfm?id=2166"},"geometry":{"type":"Point","coordinates":[-0.10831527,52.244974]}},{"@id":2167,"type":"Feature","properties":{"title":"Alma Road, Peterborough","url":"https://archaeologydataservice.ac.uk/archives/view/romangl/maprecord.cfm?id=2167"},"geometry":{"type":"Point","coordinates":[-0.24454755,52.588058]}},{"@id":2168,"type":"Feature","properties":{"title":"60 reach road, Burwell","url":"https://archaeologydataservice.ac.uk/archives/view/romangl/maprecord.cfm?id=2168"},"geometry":{"type":"Point","coordinates":[0.31938376,52.269445]}},{"@id":2169,"type":"Feature","properties":{"title":"Coldham's Lane, Cherry Hinton","url":"https://archaeologydataservice.ac.uk/archives/view/romangl/maprecord.cfm?id=2169"},"geometry":{"type":"Point","coordinates":[0.16984671,52.196666]}},{"@id":2170,"type":"Feature","properties":{"title":"Covells Drain, Swavesey","url":"https://archaeologydataservice.ac.uk/archives/view/romangl/maprecord.cfm?id=2170"},"geometry":{"type":"Point","coordinates":[-0.020753033,52.303422]}},{"@id":2171,"type":"Feature","properties":{"title":"Wilsmere Down Farm, Barrington","url":"https://archaeologydataservice.ac.uk/archives/view/romangl/maprecord.cfm?id=2171"},"geometry":{"type":"Point","coordinates":[0.028878711,52.14018]}},{"@id":2172,"type":"Feature","properties":{"title":"80 Wisbech Road,  Littleport","url":"https://archaeologydataservice.ac.uk/archives/view/romangl/maprecord.cfm?id=2172"},"geometry":{"type":"Point","coordinates":[0.29590488,52.461523]}},{"@id":2173,"type":"Feature","properties":{"title":"Hundred Road, March","url":"https://archaeologydataservice.ac.uk/archives/view/romangl/maprecord.cfm?id=2173"},"geometry":{"type":"Point","coordinates":[0.078845854,52.566062]}},{"@id":2174,"type":"Feature","properties":{"title":"12 pieces lane, Waterbeach","url":"https://archaeologydataservice.ac.uk/archives/view/romangl/maprecord.cfm?id=2174"},"geometry":{"type":"Point","coordinates":[0.19589668,52.26794]}},{"@id":2175,"type":"Feature","properties":{"title":"Coates Road, Estrea, Whittlesea","url":"https://archaeologydataservice.ac.uk/archives/view/romangl/maprecord.cfm?id=2175"},"geometry":{"type":"Point","coordinates":[-0.088401958,52.557642]}},{"@id":2176,"type":"Feature","properties":{"title":"Former Church Hall Site, High Street, Soham","url":"https://archaeologydataservice.ac.uk/archives/view/romangl/maprecord.cfm?id=2176"},"geometry":{"type":"Point","coordinates":[0.3382864,52.333366]}},{"@id":2177,"type":"Feature","properties":{"title":"Fox Cover Farm, Maxey","url":"https://archaeologydataservice.ac.uk/archives/view/romangl/maprecord.cfm?id=2177"},"geometry":{"type":"Point","coordinates":[-0.31867291,52.665789]}},{"@id":2178,"type":"Feature","properties":{"title":"Papworth Everard, Hospital Car Park","url":"https://archaeologydataservice.ac.uk/archives/view/romangl/maprecord.cfm?id=2178"},"geometry":{"type":"Point","coordinates":[-0.10878235,52.247769]}},{"@id":2179,"type":"Feature","properties":{"title":"Orton Longueville School","url":"https://archaeologydataservice.ac.uk/archives/view/romangl/maprecord.cfm?id=2179"},"geometry":{"type":"Point","coordinates":[-0.28470696,52.551209]}},{"@id":2180,"type":"Feature","properties":{"title":"Park Farm, Stanground, Peterborough","url":"https://archaeologydataservice.ac.uk/archives/view/romangl/maprecord.cfm?id=2180"},"geometry":{"type":"Point","coordinates":[-0.20934584,52.554588]}},{"@id":2181,"type":"Feature","properties":{"title":"Huntingdon to Little Barford","url":"https://archaeologydataservice.ac.uk/archives/view/romangl/maprecord.cfm?id=2181"},"geometry":{"type":"Point","coordinates":[-0.35404802,52.290105]}},{"@id":2182,"type":"Feature","properties":{"title":"Lynch Farm, Peterborough","url":"https://archaeologydataservice.ac.uk/archives/view/romangl/maprecord.cfm?id=2182"},"geometry":{"type":"Point","coordinates":[-0.31223303,52.564191]}},{"@id":2183,"type":"Feature","properties":{"title":"Coldham","url":"https://archaeologydataservice.ac.uk/archives/view/romangl/maprecord.cfm?id=2183"},"geometry":{"type":"Point","coordinates":[0.1367029,52.602796]}},{"@id":2184,"type":"Feature","properties":{"title":"NIAB, Huntingdon Road, Cambridge","url":"https://archaeologydataservice.ac.uk/archives/view/romangl/maprecord.cfm?id=2184"},"geometry":{"type":"Point","coordinates":[0.10244594,52.225762]}},{"@id":2185,"type":"Feature","properties":{"title":"Land East of Moorfield Road, Duxford","url":"https://archaeologydataservice.ac.uk/archives/view/romangl/maprecord.cfm?id=2185"},"geometry":{"type":"Point","coordinates":[0.16084424,52.101516]}},{"@id":2186,"type":"Feature","properties":{"title":"Rectory Farm, Great Gransden","url":"https://archaeologydataservice.ac.uk/archives/view/romangl/maprecord.cfm?id=2186"},"geometry":{"type":"Point","coordinates":[-0.14330194,52.18373]}},{"@id":2187,"type":"Feature","properties":{"title":"Low Park Corner Chippenham","url":"https://archaeologydataservice.ac.uk/archives/view/romangl/maprecord.cfm?id=2187"},"geometry":{"type":"Point","coordinates":[0.45034235,52.294585]}},{"@id":2188,"type":"Feature","properties":{"title":"Library Site, 266 Broadway, Yaxley","url":"https://archaeologydataservice.ac.uk/archives/view/romangl/maprecord.cfm?id=2188"},"geometry":{"type":"Point","coordinates":[-0.26868077,52.51618]}},{"@id":2189,"type":"Feature","properties":{"title":"Bicton Windfarm, Kimbolton","url":"https://archaeologydataservice.ac.uk/archives/view/romangl/maprecord.cfm?id=2189"},"geometry":{"type":"Point","coordinates":[-0.38685536,52.316138]}},{"@id":2190,"type":"Feature","properties":{"title":"Neath Farm, Church End, Cherry Hinton","url":"https://archaeologydataservice.ac.uk/archives/view/romangl/maprecord.cfm?id=2190"},"geometry":{"type":"Point","coordinates":[0.17635493,52.195099]}},{"@id":2191,"type":"Feature","properties":{"title":"Station Quarry, Steeple Morden","url":"https://archaeologydataservice.ac.uk/archives/view/romangl/maprecord.cfm?id=2191"},"geometry":{"type":"Point","coordinates":[-0.095787272,52.038134]}},{"@id":2192,"type":"Feature","properties":{"title":"Alconbury Hill","url":"https://archaeologydataservice.ac.uk/archives/view/romangl/maprecord.cfm?id=2192"},"geometry":{"type":"Point","coordinates":[-0.25984088,52.396649]}},{"@id":2193,"type":"Feature","properties":{"title":"Land north-west of Ely","url":"https://archaeologydataservice.ac.uk/archives/view/romangl/maprecord.cfm?id=2193"},"geometry":{"type":"Point","coordinates":[0.26802479,52.411707]}},{"@id":2194,"type":"Feature","properties":{"title":"North-west Cambridge Traveller's Rest Sub Site","url":"https://archaeologydataservice.ac.uk/archives/view/romangl/maprecord.cfm?id=2194"},"geometry":{"type":"Point","coordinates":[0.090892442,52.21702]}},{"@id":3001,"type":"Feature","properties":{"title":"Gadebridge Park","url":"https://archaeologydataservice.ac.uk/archives/view/romangl/maprecord.cfm?id=3001"},"geometry":{"type":"Point","coordinates":[-0.47985871,51.766747]}},{"@id":3002,"type":"Feature","properties":{"title":"Baldock bypass","url":"https://archaeologydataservice.ac.uk/archives/view/romangl/maprecord.cfm?id=3002"},"geometry":{"type":"Point","coordinates":[-0.17097166,51.985411]}},{"@id":3003,"type":"Feature","properties":{"title":"Ware, Ware Football Club","url":"https://archaeologydataservice.ac.uk/archives/view/romangl/maprecord.cfm?id=3003"},"geometry":{"type":"Point","coordinates":[-0.037248305,51.81274]}},{"@id":3004,"type":"Feature","properties":{"title":"Baldock, 2 - 24 Orchard Road","url":"https://archaeologydataservice.ac.uk/archives/view/romangl/maprecord.cfm?id=3004"},"geometry":{"type":"Point","coordinates":[-0.18895143,51.990967]}},{"@id":3005,"type":"Feature","properties":{"title":"Baldock, 2 Royston Road","url":"https://archaeologydataservice.ac.uk/archives/view/romangl/maprecord.cfm?id=3005"},"geometry":{"type":"Point","coordinates":[-0.18543986,51.991362]}},{"@id":3006,"type":"Feature","properties":{"title":"14 Westell Close, Baldock","url":"https://archaeologydataservice.ac.uk/archives/view/romangl/maprecord.cfm?id=3006"},"geometry":{"type":"Point","coordinates":[-0.17490539,51.988951]}},{"@id":3007,"type":"Feature","properties":{"title":"15-17 High Street, Elstree","url":"https://archaeologydataservice.ac.uk/archives/view/romangl/maprecord.cfm?id=3007"},"geometry":{"type":"Point","coordinates":[-0.29885116,51.645968]}},{"@id":3008,"type":"Feature","properties":{"title":"A10 Wadesmill Bypass Site 3","url":"https://archaeologydataservice.ac.uk/archives/view/romangl/maprecord.cfm?id=3008"},"geometry":{"type":"Point","coordinates":[-0.014149034,51.84976]}},{"@id":3009,"type":"Feature","properties":{"title":"Crawleys Lane (HAT 68)","url":"https://archaeologydataservice.ac.uk/archives/view/romangl/maprecord.cfm?id=3009"},"geometry":{"type":"Point","coordinates":[-0.61712301,51.778729]}},{"@id":3010,"type":"Feature","properties":{"title":"Stony Lane (HAT 79)","url":"https://archaeologydataservice.ac.uk/archives/view/romangl/maprecord.cfm?id=3010"},"geometry":{"type":"Point","coordinates":[-0.53711166,51.742692]}},{"@id":3011,"type":"Feature","properties":{"title":"Dane Field, Pirton","url":"https://archaeologydataservice.ac.uk/archives/view/romangl/maprecord.cfm?id=3011"},"geometry":{"type":"Point","coordinates":[-0.34763793,51.973069]}},{"@id":3012,"type":"Feature","properties":{"title":"Baldock","url":"https://archaeologydataservice.ac.uk/archives/view/romangl/maprecord.cfm?id=3012"},"geometry":{"type":"Point","coordinates":[-0.18427898,51.990535]}},{"@id":3013,"type":"Feature","properties":{"title":"Baldock, Wallington Road","url":"https://archaeologydataservice.ac.uk/archives/view/romangl/maprecord.cfm?id=3013"},"geometry":{"type":"Point","coordinates":[-0.17674978,51.989798]}},{"@id":3014,"type":"Feature","properties":{"title":"Gorhambury","url":"https://archaeologydataservice.ac.uk/archives/view/romangl/maprecord.cfm?id=3014"},"geometry":{"type":"Point","coordinates":[-0.38300675,51.758657]}},{"@id":3015,"type":"Feature","properties":{"title":"Park Street","url":"https://archaeologydataservice.ac.uk/archives/view/romangl/maprecord.cfm?id=3015"},"geometry":{"type":"Point","coordinates":[-0.34188607,51.714311]}},{"@id":3016,"type":"Feature","properties":{"title":"Stanborough School, Welwyn garden City","url":"https://archaeologydataservice.ac.uk/archives/view/romangl/maprecord.cfm?id=3016"},"geometry":{"type":"Point","coordinates":[-0.22022245,51.789755]}},{"@id":3017,"type":"Feature","properties":{"title":"Leavesden Aerodrome, Abbots langley","url":"https://archaeologydataservice.ac.uk/archives/view/romangl/maprecord.cfm?id=3017"},"geometry":{"type":"Point","coordinates":[-0.41807427,51.690967]}},{"@id":3018,"type":"Feature","properties":{"title":"Welwyn, School Lane","url":"https://archaeologydataservice.ac.uk/archives/view/romangl/maprecord.cfm?id=3018"},"geometry":{"type":"Point","coordinates":[-0.2179573,51.829556]}},{"@id":3019,"type":"Feature","properties":{"title":"Baldock, Football Close","url":"https://archaeologydataservice.ac.uk/archives/view/romangl/maprecord.cfm?id=3019"},"geometry":{"type":"Point","coordinates":[-0.18891517,51.991865]}},{"@id":3020,"type":"Feature","properties":{"title":"Hollard's Farm, Codicote","url":"https://archaeologydataservice.ac.uk/archives/view/romangl/maprecord.cfm?id=3020"},"geometry":{"type":"Point","coordinates":[-0.2373744,51.851878]}},{"@id":3021,"type":"Feature","properties":{"title":"Baldock, The Engine Public House","url":"https://archaeologydataservice.ac.uk/archives/view/romangl/maprecord.cfm?id=3021"},"geometry":{"type":"Point","coordinates":[-0.18752758,51.991601]}},{"@id":3022,"type":"Feature","properties":{"title":"Welwyn, West Manor, Ellesfield","url":"https://archaeologydataservice.ac.uk/archives/view/romangl/maprecord.cfm?id=3022"},"geometry":{"type":"Point","coordinates":[-0.21857194,51.831633]}},{"@id":3023,"type":"Feature","properties":{"title":"Braughing, Puckeridge-Braughing","url":"https://archaeologydataservice.ac.uk/archives/view/romangl/maprecord.cfm?id=3023"},"geometry":{"type":"Point","coordinates":[0.016221434,51.894798]}},{"@id":3024,"type":"Feature","properties":{"title":"Braughing, Skeleton Green","url":"https://archaeologydataservice.ac.uk/archives/view/romangl/maprecord.cfm?id=3024"},"geometry":{"type":"Point","coordinates":[0.013458126,51.896383]}},{"@id":3025,"type":"Feature","properties":{"title":"Prior's Wood, Hertford Heath","url":"https://archaeologydataservice.ac.uk/archives/view/romangl/maprecord.cfm?id=3025"},"geometry":{"type":"Point","coordinates":[-0.041394258,51.784034]}},{"@id":3026,"type":"Feature","properties":{"title":"Ware, New Restaurant facility","url":"https://archaeologydataservice.ac.uk/archives/view/romangl/maprecord.cfm?id=3026"},"geometry":{"type":"Point","coordinates":[-0.038889603,51.812696]}},{"@id":3027,"type":"Feature","properties":{"title":"Ware, Ware Lock","url":"https://archaeologydataservice.ac.uk/archives/view/romangl/maprecord.cfm?id=3027"},"geometry":{"type":"Point","coordinates":[-0.040284175,51.809644]}},{"@id":3028,"type":"Feature","properties":{"title":"40 Queen Street, Hitchin","url":"https://archaeologydataservice.ac.uk/archives/view/romangl/maprecord.cfm?id=3028"},"geometry":{"type":"Point","coordinates":[-0.27524494,51.945928]}},{"@id":3029,"type":"Feature","properties":{"title":"Little Wymondley","url":"https://archaeologydataservice.ac.uk/archives/view/romangl/maprecord.cfm?id=3029"},"geometry":{"type":"Point","coordinates":[-0.23154663,51.926424]}},{"@id":3030,"type":"Feature","properties":{"title":"Handpost Lodge. Leverstock Green","url":"https://archaeologydataservice.ac.uk/archives/view/romangl/maprecord.cfm?id=3030"},"geometry":{"type":"Point","coordinates":[-0.42390272,51.749321]}},{"@id":3031,"type":"Feature","properties":{"title":"Wood End Lane/Buncefield Lane","url":"https://archaeologydataservice.ac.uk/archives/view/romangl/maprecord.cfm?id=3031"},"geometry":{"type":"Point","coordinates":[-0.433191,51.759301]}},{"@id":3032,"type":"Feature","properties":{"title":"Foxholes Farm, Hertford","url":"https://archaeologydataservice.ac.uk/archives/view/romangl/maprecord.cfm?id=3032"},"geometry":{"type":"Point","coordinates":[-0.051187322,51.79229]}},{"@id":3033,"type":"Feature","properties":{"title":"Dicket Mead, Lockleys","url":"https://archaeologydataservice.ac.uk/archives/view/romangl/maprecord.cfm?id=3033"},"geometry":{"type":"Point","coordinates":[-0.20920809,51.829872]}},{"@id":3034,"type":"Feature","properties":{"title":"Lockleys Roman Villa","url":"https://archaeologydataservice.ac.uk/archives/view/romangl/maprecord.cfm?id=3034"},"geometry":{"type":"Point","coordinates":[-0.20248165,51.835515]}},{"@id":3035,"type":"Feature","properties":{"title":"Lobs Hole, Stevenage","url":"https://archaeologydataservice.ac.uk/archives/view/romangl/maprecord.cfm?id=3035"},"geometry":{"type":"Point","coordinates":[-0.164851,51.921356]}},{"@id":3036,"type":"Feature","properties":{"title":"Boxfield Farm, Chells, Stevenage","url":"https://archaeologydataservice.ac.uk/archives/view/romangl/maprecord.cfm?id=3036"},"geometry":{"type":"Point","coordinates":[-0.16065634,51.917244]}},{"@id":3037,"type":"Feature","properties":{"title":"Wheathampstead By-pass","url":"https://archaeologydataservice.ac.uk/archives/view/romangl/maprecord.cfm?id=3037"},"geometry":{"type":"Point","coordinates":[-0.2815193,51.81401]}},{"@id":3038,"type":"Feature","properties":{"title":"Braughing, Wickham Kennels","url":"https://archaeologydataservice.ac.uk/archives/view/romangl/maprecord.cfm?id=3038"},"geometry":{"type":"Point","coordinates":[0.019932617,51.900417]}},{"@id":3039,"type":"Feature","properties":{"title":"Cow Roast","url":"https://archaeologydataservice.ac.uk/archives/view/romangl/maprecord.cfm?id=3039"},"geometry":{"type":"Point","coordinates":[-0.6138424,51.783608]}},{"@id":3040,"type":"Feature","properties":{"title":"Braughing, Station Road","url":"https://archaeologydataservice.ac.uk/archives/view/romangl/maprecord.cfm?id=3040"},"geometry":{"type":"Point","coordinates":[0.019846828,51.889107]}},{"@id":3041,"type":"Feature","properties":{"title":"Braughing, Gatesbury Track","url":"https://archaeologydataservice.ac.uk/archives/view/romangl/maprecord.cfm?id=3041"},"geometry":{"type":"Point","coordinates":[0.019686292,51.896546]}},{"@id":3042,"type":"Feature","properties":{"title":"Ware (Ware Lock, Ware Library, White Swan Yard)","url":"https://archaeologydataservice.ac.uk/archives/view/romangl/maprecord.cfm?id=3042"},"geometry":{"type":"Point","coordinates":[-0.034561882,51.811131]}},{"@id":3043,"type":"Feature","properties":{"title":"Land to the North of Harlow","url":"https://archaeologydataservice.ac.uk/archives/view/romangl/maprecord.cfm?id=3043"},"geometry":{"type":"Point","coordinates":[0.087206138,51.799698]}},{"@id":3044,"type":"Feature","properties":{"title":"Brocket Hall","url":"https://archaeologydataservice.ac.uk/archives/view/romangl/maprecord.cfm?id=3044"},"geometry":{"type":"Point","coordinates":[-0.24135139,51.806834]}},{"@id":3045,"type":"Feature","properties":{"title":"Bromley Hall & Caley Wood (Hadham)","url":"https://archaeologydataservice.ac.uk/archives/view/romangl/maprecord.cfm?id=3045"},"geometry":{"type":"Point","coordinates":[0.046579552,51.869761]}},{"@id":3046,"type":"Feature","properties":{"title":"Turner's Hall Farm & Sandridge","url":"https://archaeologydataservice.ac.uk/archives/view/romangl/maprecord.cfm?id=3046"},"geometry":{"type":"Point","coordinates":[-0.31688936,51.834628]}},{"@id":3047,"type":"Feature","properties":{"title":"Exnalls Farm","url":"https://archaeologydataservice.ac.uk/archives/view/romangl/maprecord.cfm?id=3047"},"geometry":{"type":"Point","coordinates":[0.10462162,51.855968]}},{"@id":3048,"type":"Feature","properties":{"title":"Bishop's Stortford, Grange Paddocks","url":"https://archaeologydataservice.ac.uk/archives/view/romangl/maprecord.cfm?id=3048"},"geometry":{"type":"Point","coordinates":[0.16242589,51.87731]}},{"@id":3049,"type":"Feature","properties":{"title":"Baldock, Hartsfield JMI School","url":"https://archaeologydataservice.ac.uk/archives/view/romangl/maprecord.cfm?id=3049"},"geometry":{"type":"Point","coordinates":[-0.18241949,51.990416]}},{"@id":3050,"type":"Feature","properties":{"title":"High Avenue, Letchworth","url":"https://archaeologydataservice.ac.uk/archives/view/romangl/maprecord.cfm?id=3050"},"geometry":{"type":"Point","coordinates":[-0.2381139,51.970402]}},{"@id":3051,"type":"Feature","properties":{"title":"Baldock, Land to the rear of Califomia","url":"https://archaeologydataservice.ac.uk/archives/view/romangl/maprecord.cfm?id=3051"},"geometry":{"type":"Point","coordinates":[-0.18373211,51.992532]}},{"@id":3052,"type":"Feature","properties":{"title":"Land to the West and South-West of Bishop's Stortford (Site 4)","url":"https://archaeologydataservice.ac.uk/archives/view/romangl/maprecord.cfm?id=3052"},"geometry":{"type":"Point","coordinates":[0.13029424,51.858383]}},{"@id":3053,"type":"Feature","properties":{"title":"Bishop's Stortford, Legions Way / 133 Stansted Road","url":"https://archaeologydataservice.ac.uk/archives/view/romangl/maprecord.cfm?id=3053"},"geometry":{"type":"Point","coordinates":[0.16977281,51.876006]}},{"@id":3054,"type":"Feature","properties":{"title":"M1 Motorway, Junction 9","url":"https://archaeologydataservice.ac.uk/archives/view/romangl/maprecord.cfm?id=3054"},"geometry":{"type":"Point","coordinates":[-0.41937067,51.819361]}},{"@id":3055,"type":"Feature","properties":{"title":"Plashes Farm, Standon","url":"https://archaeologydataservice.ac.uk/archives/view/romangl/maprecord.cfm?id=3055"},"geometry":{"type":"Point","coordinates":[0.002755012,51.864221]}},{"@id":3056,"type":"Feature","properties":{"title":"Land East of Luton","url":"https://archaeologydataservice.ac.uk/archives/view/romangl/maprecord.cfm?id=3056"},"geometry":{"type":"Point","coordinates":[-0.35818583,51.894359]}},{"@id":3057,"type":"Feature","properties":{"title":"Braughing 1968-73","url":"https://archaeologydataservice.ac.uk/archives/view/romangl/maprecord.cfm?id=3057"},"geometry":{"type":"Point","coordinates":[0.020833567,51.900087]}},{"@id":3058,"type":"Feature","properties":{"title":"Braughing, A10 Puckeridge By-pass 1972/Wallace Land","url":"https://archaeologydataservice.ac.uk/archives/view/romangl/maprecord.cfm?id=3058"},"geometry":{"type":"Point","coordinates":[0.012191361,51.896333]}},{"@id":3059,"type":"Feature","properties":{"title":"Little Munden Farm, Bricket Wood","url":"https://archaeologydataservice.ac.uk/archives/view/romangl/maprecord.cfm?id=3059"},"geometry":{"type":"Point","coordinates":[-0.35462747,51.699869]}},{"@id":3060,"type":"Feature","properties":{"title":"Northchurch","url":"https://archaeologydataservice.ac.uk/archives/view/romangl/maprecord.cfm?id=3060"},"geometry":{"type":"Point","coordinates":[-0.59118026,51.773925]}},{"@id":3061,"type":"Feature","properties":{"title":"Boxmoor House School","url":"https://archaeologydataservice.ac.uk/archives/view/romangl/maprecord.cfm?id=3061"},"geometry":{"type":"Point","coordinates":[-0.49810971,51.739503]}},{"@id":3062,"type":"Feature","properties":{"title":"Hemel Hempstead Station","url":"https://archaeologydataservice.ac.uk/archives/view/romangl/maprecord.cfm?id=3062"},"geometry":{"type":"Point","coordinates":[-0.49075134,51.743005]}},{"@id":3063,"type":"Feature","properties":{"title":"Dellfield, Berkhamstead","url":"https://archaeologydataservice.ac.uk/archives/view/romangl/maprecord.cfm?id=3063"},"geometry":{"type":"Point","coordinates":[-0.57427363,51.770906]}},{"@id":3064,"type":"Feature","properties":{"title":"Hampermill, Watford","url":"https://archaeologydataservice.ac.uk/archives/view/romangl/maprecord.cfm?id=3064"},"geometry":{"type":"Point","coordinates":[-0.41630774,51.635021]}},{"@id":3065,"type":"Feature","properties":{"title":"Welwyn, Grange","url":"https://archaeologydataservice.ac.uk/archives/view/romangl/maprecord.cfm?id=3065"},"geometry":{"type":"Point","coordinates":[-0.21490313,51.832656]}},{"@id":3066,"type":"Feature","properties":{"title":"Mayflower Road, Park Street","url":"https://archaeologydataservice.ac.uk/archives/view/romangl/maprecord.cfm?id=3066"},"geometry":{"type":"Point","coordinates":[-0.35390074,51.722285]}},{"@id":3067,"type":"Feature","properties":{"title":"Baldock, The Tene","url":"https://archaeologydataservice.ac.uk/archives/view/romangl/maprecord.cfm?id=3067"},"geometry":{"type":"Point","coordinates":[-0.18405683,51.985946]}},{"@id":3068,"type":"Feature","properties":{"title":"Crookhams, Welwyn Garden City","url":"https://archaeologydataservice.ac.uk/archives/view/romangl/maprecord.cfm?id=3068"},"geometry":{"type":"Point","coordinates":[-0.183824,51.811499]}},{"@id":3069,"type":"Feature","properties":{"title":"Welwyn, School Lane","url":"https://archaeologydataservice.ac.uk/archives/view/romangl/maprecord.cfm?id=3069"},"geometry":{"type":"Point","coordinates":[-0.2179573,51.829556]}},{"@id":3070,"type":"Feature","properties":{"title":"Letchworth Golf Club, Letchworth","url":"https://archaeologydataservice.ac.uk/archives/view/romangl/maprecord.cfm?id=3070"},"geometry":{"type":"Point","coordinates":[-0.22945445,51.9611]}},{"@id":3071,"type":"Feature","properties":{"title":"Millbridge, Hertford","url":"https://archaeologydataservice.ac.uk/archives/view/romangl/maprecord.cfm?id=3071"},"geometry":{"type":"Point","coordinates":[-0.080016449,51.796361]}},{"@id":3072,"type":"Feature","properties":{"title":"Spencer's Park, Hemel Hempstead","url":"https://archaeologydataservice.ac.uk/archives/view/romangl/maprecord.cfm?id=3072"},"geometry":{"type":"Point","coordinates":[-0.43611195,51.773313]}},{"@id":3073,"type":"Feature","properties":{"title":"Friars Wash, Redbourn","url":"https://archaeologydataservice.ac.uk/archives/view/romangl/maprecord.cfm?id=3073"},"geometry":{"type":"Point","coordinates":[-0.40406146,51.81901]}},{"@id":3074,"type":"Feature","properties":{"title":"Bishop's Stortford High School, Bishop's Stortford","url":"https://archaeologydataservice.ac.uk/archives/view/romangl/maprecord.cfm?id=3074"},"geometry":{"type":"Point","coordinates":[0.15923692,51.856237]}},{"@id":3075,"type":"Feature","properties":{"title":"Baldock, Land at Wallington Road","url":"https://archaeologydataservice.ac.uk/archives/view/romangl/maprecord.cfm?id=3075"},"geometry":{"type":"Point","coordinates":[-0.17240857,51.988391]}},{"@id":3076,"type":"Feature","properties":{"title":"Whittington Way, Bishop's Stortford","url":"https://archaeologydataservice.ac.uk/archives/view/romangl/maprecord.cfm?id=3076"},"geometry":{"type":"Point","coordinates":[0.15457507,51.849848]}},{"@id":3077,"type":"Feature","properties":{"title":"Cross Farm, Harpenden","url":"https://archaeologydataservice.ac.uk/archives/view/romangl/maprecord.cfm?id=3077"},"geometry":{"type":"Point","coordinates":[-0.33804161,51.799393]}},{"@id":3078,"type":"Feature","properties":{"title":"A10 Wadesmill Bypass Site 2","url":"https://archaeologydataservice.ac.uk/archives/view/romangl/maprecord.cfm?id=3078"},"geometry":{"type":"Point","coordinates":[-0.02294222,51.841276]}},{"@id":3079,"type":"Feature","properties":{"title":"M1 Motorway, Junction 8 Northbound","url":"https://archaeologydataservice.ac.uk/archives/view/romangl/maprecord.cfm?id=3079"},"geometry":{"type":"Point","coordinates":[-0.4165371,51.752819]}},{"@id":3080,"type":"Feature","properties":{"title":"Bricket Wood Bund","url":"https://archaeologydataservice.ac.uk/archives/view/romangl/maprecord.cfm?id=3080"},"geometry":{"type":"Point","coordinates":[-0.37014179,51.71352]}},{"@id":3081,"type":"Feature","properties":{"title":"Welwyn, Welwyn Hall","url":"https://archaeologydataservice.ac.uk/archives/view/romangl/maprecord.cfm?id=3081"},"geometry":{"type":"Point","coordinates":[-0.21345263,51.832634]}},{"@id":3082,"type":"Feature","properties":{"title":"Aldwick, Barley","url":"https://archaeologydataservice.ac.uk/archives/view/romangl/maprecord.cfm?id=3082"},"geometry":{"type":"Point","coordinates":[0.036394989,52.029998]}},{"@id":3083,"type":"Feature","properties":{"title":"Ashwell, near Baldock","url":"https://archaeologydataservice.ac.uk/archives/view/romangl/maprecord.cfm?id=3083"},"geometry":{"type":"Point","coordinates":[-0.16376602,52.047261]}},{"@id":4001,"type":"Feature","properties":{"title":"Kilverstone, Thetford","url":"https://archaeologydataservice.ac.uk/archives/view/romangl/maprecord.cfm?id=4001"},"geometry":{"type":"Point","coordinates":[0.7691136,52.420181]}},{"@id":4002,"type":"Feature","properties":{"title":"Melford Meadows, Brettenham, Thetford","url":"https://archaeologydataservice.ac.uk/archives/view/romangl/maprecord.cfm?id=4002"},"geometry":{"type":"Point","coordinates":[0.75960017,52.409163]}},{"@id":4003,"type":"Feature","properties":{"title":"Thetford, St Nicholas' Street","url":"https://archaeologydataservice.ac.uk/archives/view/romangl/maprecord.cfm?id=4003"},"geometry":{"type":"Point","coordinates":[0.7463072,52.415318]}},{"@id":4004,"type":"Feature","properties":{"title":"Harford Farm, Caistor St Edmund","url":"https://archaeologydataservice.ac.uk/archives/view/romangl/maprecord.cfm?id=4004"},"geometry":{"type":"Point","coordinates":[1.2819415,52.59097]}},{"@id":4005,"type":"Feature","properties":{"title":"Valley Belt, Trowse","url":"https://archaeologydataservice.ac.uk/archives/view/romangl/maprecord.cfm?id=4005"},"geometry":{"type":"Point","coordinates":[1.3170569,52.60618]}},{"@id":4006,"type":"Feature","properties":{"title":"Brandon Road, Thetford","url":"https://archaeologydataservice.ac.uk/archives/view/romangl/maprecord.cfm?id=4006"},"geometry":{"type":"Point","coordinates":[0.72615988,52.415335]}},{"@id":4007,"type":"Feature","properties":{"title":"Snettisham Bypass","url":"https://archaeologydataservice.ac.uk/archives/view/romangl/maprecord.cfm?id=4007"},"geometry":{"type":"Point","coordinates":[0.48926179,52.867794]}},{"@id":4008,"type":"Feature","properties":{"title":"Spong Hill","url":"https://archaeologydataservice.ac.uk/archives/view/romangl/maprecord.cfm?id=4008"},"geometry":{"type":"Point","coordinates":[0.93286002,52.736827]}},{"@id":4009,"type":"Feature","properties":{"title":"Redcastle Furze, Thetford","url":"https://archaeologydataservice.ac.uk/archives/view/romangl/maprecord.cfm?id=4009"},"geometry":{"type":"Point","coordinates":[0.73562226,52.413767]}},{"@id":4010,"type":"Feature","properties":{"title":"Crow Hall Park, London Road, Downham Market, 1999-2000","url":"https://archaeologydataservice.ac.uk/archives/view/romangl/maprecord.cfm?id=4010"},"geometry":{"type":"Point","coordinates":[0.37429188,52.593468]}},{"@id":4011,"type":"Feature","properties":{"title":"The Oaks, Thorpe St Andrew, Norwich","url":"https://archaeologydataservice.ac.uk/archives/view/romangl/maprecord.cfm?id=4011"},"geometry":{"type":"Point","coordinates":[1.3299326,52.629832]}},{"@id":4012,"type":"Feature","properties":{"title":"Lynford Quarry, Stanford","url":"https://archaeologydataservice.ac.uk/archives/view/romangl/maprecord.cfm?id=4012"},"geometry":{"type":"Point","coordinates":[0.68844421,52.520512]}},{"@id":4013,"type":"Feature","properties":{"title":"Church Loke, Burgh Castle","url":"https://archaeologydataservice.ac.uk/archives/view/romangl/maprecord.cfm?id=4013"},"geometry":{"type":"Point","coordinates":[1.6543826,52.585448]}},{"@id":4014,"type":"Feature","properties":{"title":"Gayton Thorpe","url":"https://archaeologydataservice.ac.uk/archives/view/romangl/maprecord.cfm?id=4014"},"geometry":{"type":"Point","coordinates":[0.56816734,52.732701]}},{"@id":4015,"type":"Feature","properties":{"title":"Brandon Road, Thetford, 1964-6","url":"https://archaeologydataservice.ac.uk/archives/view/romangl/maprecord.cfm?id=4015"},"geometry":{"type":"Point","coordinates":[0.73815133,52.413286]}},{"@id":4016,"type":"Feature","properties":{"title":"Fison Way, Thetford","url":"https://archaeologydataservice.ac.uk/archives/view/romangl/maprecord.cfm?id=4016"},"geometry":{"type":"Point","coordinates":[0.74412149,52.431745]}},{"@id":4017,"type":"Feature","properties":{"title":"Little Oulsham Drove, Feltwell","url":"https://archaeologydataservice.ac.uk/archives/view/romangl/maprecord.cfm?id=4017"},"geometry":{"type":"Point","coordinates":[0.50245299,52.499559]}},{"@id":4018,"type":"Feature","properties":{"title":"Hockwold cum Wilton, Leylands Farm","url":"https://archaeologydataservice.ac.uk/archives/view/romangl/maprecord.cfm?id=4018"},"geometry":{"type":"Point","coordinates":[0.57995905,52.454569]}},{"@id":4019,"type":"Feature","properties":{"title":"Denver","url":"https://archaeologydataservice.ac.uk/archives/view/romangl/maprecord.cfm?id=4019"},"geometry":{"type":"Point","coordinates":[0.34731875,52.579718]}},{"@id":4020,"type":"Feature","properties":{"title":"Saham Toney, Watton Sewage Treatment Works, Little Cressingham","url":"https://archaeologydataservice.ac.uk/archives/view/romangl/maprecord.cfm?id=4020"},"geometry":{"type":"Point","coordinates":[0.78128158,52.566566]}},{"@id":4021,"type":"Feature","properties":{"title":"Thornham","url":"https://archaeologydataservice.ac.uk/archives/view/romangl/maprecord.cfm?id=4021"},"geometry":{"type":"Point","coordinates":[0.56752946,52.952862]}},{"@id":4022,"type":"Feature","properties":{"title":"Wighton","url":"https://archaeologydataservice.ac.uk/archives/view/romangl/maprecord.cfm?id=4022"},"geometry":{"type":"Point","coordinates":[0.90597894,52.917286]}},{"@id":4023,"type":"Feature","properties":{"title":"Caistor St Edmund temple","url":"https://archaeologydataservice.ac.uk/archives/view/romangl/maprecord.cfm?id=4023"},"geometry":{"type":"Point","coordinates":[1.3048214,52.586916]}},{"@id":4024,"type":"Feature","properties":{"title":"Brancaster","url":"https://archaeologydataservice.ac.uk/archives/view/romangl/maprecord.cfm?id=4024"},"geometry":{"type":"Point","coordinates":[0.65629949,52.964605]}},{"@id":4025,"type":"Feature","properties":{"title":"Whey Curd Farm, Wighton","url":"https://archaeologydataservice.ac.uk/archives/view/romangl/maprecord.cfm?id=4025"},"geometry":{"type":"Point","coordinates":[0.88937263,52.907854]}},{"@id":4026,"type":"Feature","properties":{"title":"Ashill","url":"https://archaeologydataservice.ac.uk/archives/view/romangl/maprecord.cfm?id=4026"},"geometry":{"type":"Point","coordinates":[0.81688947,52.615543]}},{"@id":4027,"type":"Feature","properties":{"title":"Brampton, Kiln Field","url":"https://archaeologydataservice.ac.uk/archives/view/romangl/maprecord.cfm?id=4027"},"geometry":{"type":"Point","coordinates":[1.2899347,52.763776]}},{"@id":4028,"type":"Feature","properties":{"title":"Brampton","url":"https://archaeologydataservice.ac.uk/archives/view/romangl/maprecord.cfm?id=4028"},"geometry":{"type":"Point","coordinates":[1.2942442,52.764888]}},{"@id":4029,"type":"Feature","properties":{"title":"Witton","url":"https://archaeologydataservice.ac.uk/archives/view/romangl/maprecord.cfm?id=4029"},"geometry":{"type":"Point","coordinates":[1.4494303,52.824941]}},{"@id":4030,"type":"Feature","properties":{"title":"Scole","url":"https://archaeologydataservice.ac.uk/archives/view/romangl/maprecord.cfm?id=4030"},"geometry":{"type":"Point","coordinates":[1.1542445,52.365173]}},{"@id":4031,"type":"Feature","properties":{"title":"Scole, A143 Scole-Stuston Bypass","url":"https://archaeologydataservice.ac.uk/archives/view/romangl/maprecord.cfm?id=4031"},"geometry":{"type":"Point","coordinates":[1.159824,52.362658]}},{"@id":4032,"type":"Feature","properties":{"title":"Browick Road, Wymondham","url":"https://archaeologydataservice.ac.uk/archives/view/romangl/maprecord.cfm?id=4032"},"geometry":{"type":"Point","coordinates":[1.1327597,52.569833]}},{"@id":4033,"type":"Feature","properties":{"title":"Caistor Hall Hotel, Caistor St Edmund","url":"https://archaeologydataservice.ac.uk/archives/view/romangl/maprecord.cfm?id=4033"},"geometry":{"type":"Point","coordinates":[1.2992012,52.585814]}},