{"@id":"https://w3id.org/rrsp_convert","type":"FeatureCollection","@context":"https://w3id.org/locolligo/contexts/linkedplaces.jsonld","features":[{"@id":"https://w3id.org/rrsp_convert/83c5b06d-9202-4e8a-83bb-9371f45f8d15","type":"Feature","properties":{"title":"Woodham Walter","url":"https://archaeologydataservice.ac.uk/archives/view/romangl/maprecord.cfm?id=1001","form":"enclosed","size":"small (<1 - 3 ha)"},"geometry":{"type":"Point","coordinates":[0.62314677,51.742302]}},{"@id":"https://w3id.org/rrsp_convert/8847edc9-e403-4922-8ff1-ad1b20ecbf42","type":"Feature","properties":{"title":"Great Chesterford Temple","url":"https://archaeologydataservice.ac.uk/archives/view/romangl/maprecord.cfm?id=1002","form":"unclassified","size":"small (<1 - 3 ha)"},"geometry":{"type":"Point","coordinates":[0.20805209,52.070481]}},{"@id":"https://w3id.org/rrsp_convert/b5252455-7c78-4085-ac22-5660d38171dd","type":"Feature","properties":{"title":"Great Holts Farm","url":"https://archaeologydataservice.ac.uk/archives/view/romangl/maprecord.cfm?id=1003","form":"complex","size":"medium (4 - 8 ha)"},"geometry":{"type":"Point","coordinates":[0.53832446,51.779688]}},{"@id":"https://w3id.org/rrsp_convert/750eaa11-41f7-4f91-aed5-0f70f7eccf2b","type":"Feature","properties":{"title":"Strood Hall","url":"https://archaeologydataservice.ac.uk/archives/view/romangl/maprecord.cfm?id=1004","form":"complex","size":"small (<1 - 3 ha)"},"geometry":{"type":"Point","coordinates":[0.32357662,51.869876]}},{"@id":"https://w3id.org/rrsp_convert/4132c1af-db2c-4b7a-a774-6a400f476f9f","type":"Feature","properties":{"title":"Rayne Roundabout","url":"https://archaeologydataservice.ac.uk/archives/view/romangl/maprecord.cfm?id=1005","form":"unclassified","size":"uncertain"},"geometry":{"type":"Point","coordinates":[0.48811412,51.87258]}},{"@id":"https://w3id.org/rrsp_convert/59413ecb-cdb3-4614-8c7b-980424a57157","type":"Feature","properties":{"title":"Parsonage Lane","url":"https://archaeologydataservice.ac.uk/archives/view/romangl/maprecord.cfm?id=1006","form":"unclassified","size":"uncertain"},"geometry":{"type":"Point","coordinates":[0.26623212,51.875509]}},{"@id":"https://w3id.org/rrsp_convert/5e4282f7-d46a-451e-acc0-7badf4972f39","type":"Feature","properties":{"title":"Valentine Cottage","url":"https://archaeologydataservice.ac.uk/archives/view/romangl/maprecord.cfm?id=1007","form":"unclassified","size":"small (<1 - 3 ha)"},"geometry":{"type":"Point","coordinates":[0.515032,51.867844]}},{"@id":"https://w3id.org/rrsp_convert/230c0832-a7eb-4b26-95be-29348fe6bcfd","type":"Feature","properties":{"title":"Highwood Farm","url":"https://archaeologydataservice.ac.uk/archives/view/romangl/maprecord.cfm?id=1008","form":"unclassified","size":"small (<1 - 3 ha)"},"geometry":{"type":"Point","coordinates":[0.33827234,51.86641]}},{"@id":"https://w3id.org/rrsp_convert/64da51ae-a2de-4ec0-a2bf-4a93450b86f8","type":"Feature","properties":{"title":"East of Little Dunmow Road","url":"https://archaeologydataservice.ac.uk/archives/view/romangl/maprecord.cfm?id=1009","form":"complex","size":"small (<1 - 3 ha)"},"geometry":{"type":"Point","coordinates":[0.40187285,51.871981]}},{"@id":"https://w3id.org/rrsp_convert/de97a2fb-804a-4500-90de-70c2ed8df6fd","type":"Feature","properties":{"title":"Little Oakley","url":"https://archaeologydataservice.ac.uk/archives/view/romangl/maprecord.cfm?id=1010","form":"unclassified","size":"medium (4 - 8 ha)"},"geometry":{"type":"Point","coordinates":[1.2312305,51.916593]}},{"@id":"https://w3id.org/rrsp_convert/a32e3ec8-6ad9-4a25-a68b-f5c5038e8f72","type":"Feature","properties":{"title":"Ardleigh","url":"https://archaeologydataservice.ac.uk/archives/view/romangl/maprecord.cfm?id=1011","form":"complex","size":"large (9+ ha)"},"geometry":{"type":"Point","coordinates":[0.98929653,51.92023]}},{"@id":"https://w3id.org/rrsp_convert/f3561dd3-f081-4564-8504-99b7a2d5f0c8","type":"Feature","properties":{"title":"Ivy Chimneys","url":"https://archaeologydataservice.ac.uk/archives/view/romangl/maprecord.cfm?id=1012","form":"complex","size":"small (<1 - 3 ha)"},"geometry":{"type":"Point","coordinates":[0.6251699,51.792412]}},{"@id":"https://w3id.org/rrsp_convert/f563942a-9ff9-40f6-a8c6-45cfdb3a3ffc","type":"Feature","properties":{"title":"Orsett 'Cock'","url":"https://archaeologydataservice.ac.uk/archives/view/romangl/maprecord.cfm?id=1013","form":"enclosed","size":"small (<1 - 3 ha)"},"geometry":{"type":"Point","coordinates":[0.38203135,51.506668]}},{"@id":"https://w3id.org/rrsp_convert/21a19e27-1d14-472e-8e43-0023ec624e91","type":"Feature","properties":{"title":"Stansted 99-04 Site LTCP","url":"https://archaeologydataservice.ac.uk/archives/view/romangl/maprecord.cfm?id=1014","form":"enclosed","size":"small (<1 - 3 ha)"},"geometry":{"type":"Point","coordinates":[0.21052833,51.886137]}},{"@id":"https://w3id.org/rrsp_convert/24511bc5-1ddd-4d15-a1e9-d8ace97688e9","type":"Feature","properties":{"title":"Stansted 85-91 (ACS)","url":"https://archaeologydataservice.ac.uk/archives/view/romangl/maprecord.cfm?id=1015","form":"enclosed","size":"small (<1 - 3 ha)"},"geometry":{"type":"Point","coordinates":[0.25653766,51.887035]}},{"@id":"https://w3id.org/rrsp_convert/a6acd152-8110-4d16-a590-5d55a2bdd03f","type":"Feature","properties":{"title":"Stansted 85-91 BLS/DFS/DCS","url":"https://archaeologydataservice.ac.uk/archives/view/romangl/maprecord.cfm?id=1016","form":"unclassified","size":"large (9+ ha)"},"geometry":{"type":"Point","coordinates":[0.23614375,51.884295]}},{"@id":"https://w3id.org/rrsp_convert/c35b81d5-63c3-4c7e-8deb-76e23836c317","type":"Feature","properties":{"title":"Chignall","url":"https://archaeologydataservice.ac.uk/archives/view/romangl/maprecord.cfm?id=1017","form":"complex","size":"medium (4 - 8 ha)"},"geometry":{"type":"Point","coordinates":[0.40840167,51.770624]}},{"@id":"https://w3id.org/rrsp_convert/4f0af3c6-5703-40cd-a355-58c67817473c","type":"Feature","properties":{"title":"Gutteridge Wood, Weeley","url":"https://archaeologydataservice.ac.uk/archives/view/romangl/maprecord.cfm?id=1018","form":"unclassified","size":"uncertain"},"geometry":{"type":"Point","coordinates":[1.1065913,51.846326]}},{"@id":"https://w3id.org/rrsp_convert/73ea0088-84dc-43a9-9086-320ce96e77a7","type":"Feature","properties":{"title":"The Rodings","url":"https://archaeologydataservice.ac.uk/archives/view/romangl/maprecord.cfm?id=1019","form":"complex","size":"large (9+ ha)"},"geometry":{"type":"Point","coordinates":[0.29291165,51.794759]}},{"@id":"https://w3id.org/rrsp_convert/03e2614a-34bc-4996-ba23-d66aa537623e","type":"Feature","properties":{"title":"South of A120, Takeley","url":"https://archaeologydataservice.ac.uk/archives/view/romangl/maprecord.cfm?id=1020","form":"unclassified","size":"uncertain"},"geometry":{"type":"Point","coordinates":[0.2634412,51.867092]}},{"@id":"https://w3id.org/rrsp_convert/2f580348-7db3-4cc4-a615-96c10d0170e8","type":"Feature","properties":{"title":"Thaxted","url":"https://archaeologydataservice.ac.uk/archives/view/romangl/maprecord.cfm?id=1021","form":"unclassified","size":"uncertain"},"geometry":{"type":"Point","coordinates":[0.34576811,51.96098]}},{"@id":"https://w3id.org/rrsp_convert/98e21e65-f138-43d7-bad5-4d7cba4aa7d8","type":"Feature","properties":{"title":"Great Notley","url":"https://archaeologydataservice.ac.uk/archives/view/romangl/maprecord.cfm?id=1022","form":"enclosed","size":"small (<1 - 3 ha)"},"geometry":{"type":"Point","coordinates":[0.51802117,51.866224]}},{"@id":"https://w3id.org/rrsp_convert/f41e05b6-8403-46bc-a248-951255d81423","type":"Feature","properties":{"title":"Frogs Hall Borrow Pit, Takeley","url":"https://archaeologydataservice.ac.uk/archives/view/romangl/maprecord.cfm?id=1023","form":"complex","size":"uncertain"},"geometry":{"type":"Point","coordinates":[0.30344952,51.879678]}},{"@id":"https://w3id.org/rrsp_convert/4395a189-a4f0-42a0-96f5-9e856613ee04","type":"Feature","properties":{"title":"Slough House Farm","url":"https://archaeologydataservice.ac.uk/archives/view/romangl/maprecord.cfm?id=1024","form":"unclassified","size":"small (<1 - 3 ha)"},"geometry":{"type":"Point","coordinates":[0.71230889,51.750943]}},{"@id":"https://w3id.org/rrsp_convert/d7a571ac-911e-4cd2-ad34-2cb5439b2596","type":"Feature","properties":{"title":"Chigborough Farm","url":"https://archaeologydataservice.ac.uk/archives/view/romangl/maprecord.cfm?id=1025","form":"complex","size":"small (<1 - 3 ha)"},"geometry":{"type":"Point","coordinates":[0.72067585,51.740686]}},{"@id":"https://w3id.org/rrsp_convert/3d7ea77b-edc3-4697-ae45-ec15599a8332","type":"Feature","properties":{"title":"North Shoebury","url":"https://archaeologydataservice.ac.uk/archives/view/romangl/maprecord.cfm?id=1026","form":"unclassified","size":"small (<1 - 3 ha)"},"geometry":{"type":"Point","coordinates":[0.78496976,51.543135]}},{"@id":"https://w3id.org/rrsp_convert/2f1e2833-0205-419e-895c-82c34378b246","type":"Feature","properties":{"title":"Blackwater Redhills","url":"https://archaeologydataservice.ac.uk/archives/view/romangl/maprecord.cfm?id=1027","form":"unclassified","size":"uncertain"},"geometry":{"type":"Point","coordinates":[0.80703373,51.740749]}},{"@id":"https://w3id.org/rrsp_convert/b4ee3e92-3fa6-4523-bff1-3976e6a3f39b","type":"Feature","properties":{"title":"Ardale","url":"https://archaeologydataservice.ac.uk/archives/view/romangl/maprecord.cfm?id=1028","form":"enclosed","size":"small (<1 - 3 ha)"},"geometry":{"type":"Point","coordinates":[0.30144375,51.496343]}},{"@id":"https://w3id.org/rrsp_convert/dfc393fb-9b27-471d-9d29-4892d72b5e04","type":"Feature","properties":{"title":"Great Dunmow","url":"https://archaeologydataservice.ac.uk/archives/view/romangl/maprecord.cfm?id=1029","form":"complex","size":"large (9+ ha)"},"geometry":{"type":"Point","coordinates":[0.36025375,51.872032]}},{"@id":"https://w3id.org/rrsp_convert/c1fc1232-fdca-442f-ac61-3bb401ea7d78","type":"Feature","properties":{"title":"Elsenham Quarry","url":"https://archaeologydataservice.ac.uk/archives/view/romangl/maprecord.cfm?id=1030","form":"complex","size":"small (<1 - 3 ha)"},"geometry":{"type":"Point","coordinates":[0.26025076,51.915848]}},{"@id":"https://w3id.org/rrsp_convert/ae9934ef-e60e-4aed-bdb8-07fecd4f3d4d","type":"Feature","properties":{"title":"Billericay","url":"https://archaeologydataservice.ac.uk/archives/view/romangl/maprecord.cfm?id=1031","form":"complex","size":"large (9+ ha)"},"geometry":{"type":"Point","coordinates":[0.41786526,51.614509]}},{"@id":"https://w3id.org/rrsp_convert/ceef21fd-9125-40d5-96ef-d6899f9484f3","type":"Feature","properties":{"title":"Stansted 99-04 Site MTCP","url":"https://archaeologydataservice.ac.uk/archives/view/romangl/maprecord.cfm?id=1032","form":"complex","size":"small (<1 - 3 ha)"},"geometry":{"type":"Point","coordinates":[0.25387545,51.879137]}},{"@id":"https://w3id.org/rrsp_convert/850fb788-8ca3-49cd-ab51-645b418215dc","type":"Feature","properties":{"title":"Braintree, Pierrefitte Way","url":"https://archaeologydataservice.ac.uk/archives/view/romangl/maprecord.cfm?id=1033","form":"complex","size":"large (9+ ha)"},"geometry":{"type":"Point","coordinates":[0.54777134,51.877796]}},{"@id":"https://w3id.org/rrsp_convert/456bec17-7d95-4444-be75-76fca9a57fe3","type":"Feature","properties":{"title":"Hill Farm, Gestingthorpe","url":"https://archaeologydataservice.ac.uk/archives/view/romangl/maprecord.cfm?id=1034","form":"unclassified","size":"medium (4 - 8 ha)"},"geometry":{"type":"Point","coordinates":[0.66229705,52.01681]}},{"@id":"https://w3id.org/rrsp_convert/52a259d5-7f45-4c6f-a641-022eef3a7aaf","type":"Feature","properties":{"title":"Great Wakering","url":"https://archaeologydataservice.ac.uk/archives/view/romangl/maprecord.cfm?id=1035","form":"unclassified","size":"uncertain"},"geometry":{"type":"Point","coordinates":[0.81176438,51.553117]}},{"@id":"https://w3id.org/rrsp_convert/c1d873ca-bfe9-4331-bc36-735fbc425ad0","type":"Feature","properties":{"title":"West Thurrock","url":"https://archaeologydataservice.ac.uk/archives/view/romangl/maprecord.cfm?id=1036","form":"enclosed","size":"small (<1 - 3 ha)"},"geometry":{"type":"Point","coordinates":[0.25514614,51.480165]}},{"@id":"https://w3id.org/rrsp_convert/3b3e234c-6e8f-4144-8e4b-b1344ba58f22","type":"Feature","properties":{"title":"Rainham","url":"https://archaeologydataservice.ac.uk/archives/view/romangl/maprecord.cfm?id=1037","form":"unclassified","size":"small (<1 - 3 ha)"},"geometry":{"type":"Point","coordinates":[0.2353251,51.515428]}},{"@id":"https://w3id.org/rrsp_convert/3861757d-b508-4a38-abe9-1fcaa48c5f53","type":"Feature","properties":{"title":"Great Dunmow, High St","url":"https://archaeologydataservice.ac.uk/archives/view/romangl/maprecord.cfm?id=1038","form":"complex","size":"large (9+ ha)"},"geometry":{"type":"Point","coordinates":[0.36615563,51.869611]}},{"@id":"https://w3id.org/rrsp_convert/4d1040c6-3fbb-497f-94e4-c43dc07882e1","type":"Feature","properties":{"title":"Monument Borrow Pit","url":"https://archaeologydataservice.ac.uk/archives/view/romangl/maprecord.cfm?id=1039","form":"enclosed","size":"small (<1 - 3 ha)"},"geometry":{"type":"Point","coordinates":[0.5585915,51.596245]}},{"@id":"https://w3id.org/rrsp_convert/edf2f81b-f365-4449-94f8-34bfea85c077","type":"Feature","properties":{"title":"Curry Hill","url":"https://archaeologydataservice.ac.uk/archives/view/romangl/maprecord.cfm?id=1040","form":"unclassified","size":"small (<1 - 3 ha)"},"geometry":{"type":"Point","coordinates":[0.55313037,51.630934]}},{"@id":"https://w3id.org/rrsp_convert/32e32b2e-2834-4289-9e06-0892aeb83d05","type":"Feature","properties":{"title":"Great Dunmow, Junior School","url":"https://archaeologydataservice.ac.uk/archives/view/romangl/maprecord.cfm?id=1041","form":"complex","size":"large (9+ ha)"},"geometry":{"type":"Point","coordinates":[0.3576199,51.871671]}},{"@id":"https://w3id.org/rrsp_convert/fe8d127f-1305-456f-a49f-9427eee84962","type":"Feature","properties":{"title":"Little Waltham, Wickham Ley","url":"https://archaeologydataservice.ac.uk/archives/view/romangl/maprecord.cfm?id=1042","form":"complex","size":"large (9+ ha)"},"geometry":{"type":"Point","coordinates":[0.47164476,51.786281]}},{"@id":"https://w3id.org/rrsp_convert/aa915acf-3540-48b8-9467-7053033672f4","type":"Feature","properties":{"title":"Cressing Churchyard","url":"https://archaeologydataservice.ac.uk/archives/view/romangl/maprecord.cfm?id=1043","form":"unclassified","size":"medium (4 - 8 ha)"},"geometry":{"type":"Point","coordinates":[0.60351421,51.854254]}},{"@id":"https://w3id.org/rrsp_convert/12dc6d80-40df-47f7-b80c-a88acc38f18c","type":"Feature","properties":{"title":"Kelvedon","url":"https://archaeologydataservice.ac.uk/archives/view/romangl/maprecord.cfm?id=1044","form":"complex","size":"large (9+ ha)"},"geometry":{"type":"Point","coordinates":[0.70422761,51.838491]}},{"@id":"https://w3id.org/rrsp_convert/1a047c72-1fbd-404f-bdcc-91ec199ffcc7","type":"Feature","properties":{"title":"Harlow","url":"https://archaeologydataservice.ac.uk/archives/view/romangl/maprecord.cfm?id=1045","form":"enclosed","size":"small (<1 - 3 ha)"},"geometry":{"type":"Point","coordinates":[0.12707649,51.790135]}},{"@id":"https://w3id.org/rrsp_convert/2158208f-281b-4140-9a33-83bd1509e145","type":"Feature","properties":{"title":"Bulls Lodge Quarry","url":"https://archaeologydataservice.ac.uk/archives/view/romangl/maprecord.cfm?id=1046","form":"enclosed","size":"small (<1 - 3 ha)"},"geometry":{"type":"Point","coordinates":[0.51460174,51.765288]}},{"@id":"https://w3id.org/rrsp_convert/202f65b2-38b7-4d71-9585-a759502b4903","type":"Feature","properties":{"title":"Great Dunmow, Redbond Lodge","url":"https://archaeologydataservice.ac.uk/archives/view/romangl/maprecord.cfm?id=1047","form":"complex","size":"large (9+ ha)"},"geometry":{"type":"Point","coordinates":[0.3605808,51.871342]}},{"@id":"https://w3id.org/rrsp_convert/1678934c-0541-4865-b2d1-b213ae530b68","type":"Feature","properties":{"title":"Kelvedon, land to the rear of Lawson Villas","url":"https://archaeologydataservice.ac.uk/archives/view/romangl/maprecord.cfm?id=1048","form":"complex","size":"large (9+ ha)"},"geometry":{"type":"Point","coordinates":[0.70272941,51.837716]}},{"@id":"https://w3id.org/rrsp_convert/980ab2c8-8d67-4c63-9b58-704ca12caaea","type":"Feature","properties":{"title":"Mill Hill, Braintree","url":"https://archaeologydataservice.ac.uk/archives/view/romangl/maprecord.cfm?id=1049","form":"unclassified","size":"uncertain"},"geometry":{"type":"Point","coordinates":[0.5665699,51.868556]}},{"@id":"https://w3id.org/rrsp_convert/583a091c-d0b2-4e29-9dba-f52a4df40071","type":"Feature","properties":{"title":"Ship Lane, Aveley","url":"https://archaeologydataservice.ac.uk/archives/view/romangl/maprecord.cfm?id=1050","form":"unclassified","size":"small (<1 - 3 ha)"},"geometry":{"type":"Point","coordinates":[0.25517499,51.49155]}},{"@id":"https://w3id.org/rrsp_convert/79bbb367-c016-459f-bde0-85db44c5fb8d","type":"Feature","properties":{"title":"Elm Park, Ardleigh","url":"https://archaeologydataservice.ac.uk/archives/view/romangl/maprecord.cfm?id=1051","form":"unclassified","size":"uncertain"},"geometry":{"type":"Point","coordinates":[0.98747417,51.918414]}},{"@id":"https://w3id.org/rrsp_convert/bb7962b6-f26b-457b-b13e-faea99729cd3","type":"Feature","properties":{"title":"Kelvedon, Star and Fleece","url":"https://archaeologydataservice.ac.uk/archives/view/romangl/maprecord.cfm?id=1052","form":"complex","size":"large (9+ ha)"},"geometry":{"type":"Point","coordinates":[0.7051621,51.839549]}},{"@id":"https://w3id.org/rrsp_convert/3a58e3d4-c7de-48a5-a9f3-4f414d30f3ce","type":"Feature","properties":{"title":"Mucking","url":"https://archaeologydataservice.ac.uk/archives/view/romangl/maprecord.cfm?id=1053","form":"complex","size":"large (9+ ha)"},"geometry":{"type":"Point","coordinates":[0.40875231,51.496886]}},{"@id":"https://w3id.org/rrsp_convert/8dd9b53e-8a8c-499b-9a2d-b771d2730725","type":"Feature","properties":{"title":"Old House Site, Harlow","url":"https://archaeologydataservice.ac.uk/archives/view/romangl/maprecord.cfm?id=1054","form":"unclassified","size":"small (<1 - 3 ha)"},"geometry":{"type":"Point","coordinates":[0.14921161,51.767098]}},{"@id":"https://w3id.org/rrsp_convert/84161d76-2f5c-428b-9a1e-f9990651fa65","type":"Feature","properties":{"title":"Braintree, Grenville/College Rd","url":"https://archaeologydataservice.ac.uk/archives/view/romangl/maprecord.cfm?id=1055","form":"complex","size":"large (9+ ha)"},"geometry":{"type":"Point","coordinates":[0.54504345,51.878376]}},{"@id":"https://w3id.org/rrsp_convert/e8980e13-1b66-4dcc-9b62-f962a0cc6bdd","type":"Feature","properties":{"title":"Heybridge, Langford Rd","url":"https://archaeologydataservice.ac.uk/archives/view/romangl/maprecord.cfm?id=1056","form":"complex","size":"uncertain"},"geometry":{"type":"Point","coordinates":[0.67414453,51.744587]}},{"@id":"https://w3id.org/rrsp_convert/7dd83906-8431-4a46-a789-5e02ae802522","type":"Feature","properties":{"title":"Buildings Farm, Great Dunmow","url":"https://archaeologydataservice.ac.uk/archives/view/romangl/maprecord.cfm?id=1057","form":"unclassified","size":"uncertain"},"geometry":{"type":"Point","coordinates":[0.34806278,51.873661]}},{"@id":"https://w3id.org/rrsp_convert/4436956f-f5e5-4638-a13c-0c6435caa614","type":"Feature","properties":{"title":"Sandford Quarry","url":"https://archaeologydataservice.ac.uk/archives/view/romangl/maprecord.cfm?id=1058","form":"unclassified","size":"uncertain"},"geometry":{"type":"Point","coordinates":[0.62243897,51.780089]}},{"@id":"https://w3id.org/rrsp_convert/c0eacaff-73e4-4a41-a6be-99499abeaa5a","type":"Feature","properties":{"title":"Castle Hedingham","url":"https://archaeologydataservice.ac.uk/archives/view/romangl/maprecord.cfm?id=1059","form":"unclassified","size":"uncertain"},"geometry":{"type":"Point","coordinates":[0.59998719,51.982618]}},{"@id":"https://w3id.org/rrsp_convert/e89af926-1042-4c9a-904f-fdfd113f17dd","type":"Feature","properties":{"title":"Coggeshall","url":"https://archaeologydataservice.ac.uk/archives/view/romangl/maprecord.cfm?id=1060","form":"enclosed","size":"medium (4 - 8 ha)"},"geometry":{"type":"Point","coordinates":[0.6914731,51.873632]}},{"@id":"https://w3id.org/rrsp_convert/03fe8064-bd5c-43cc-acd2-a34bf27a35d9","type":"Feature","properties":{"title":"Othona","url":"https://archaeologydataservice.ac.uk/archives/view/romangl/maprecord.cfm?id=1061","form":"unclassified","size":"medium (4 - 8 ha)"},"geometry":{"type":"Point","coordinates":[0.93943942,51.737789]}},{"@id":"https://w3id.org/rrsp_convert/b30af3a4-ae83-4209-bde3-0994c844ab76","type":"Feature","properties":{"title":"Bulls Lodge, Boreham","url":"https://archaeologydataservice.ac.uk/archives/view/romangl/maprecord.cfm?id=1062","form":"unclassified","size":"uncertain"},"geometry":{"type":"Point","coordinates":[0.53003252,51.767789]}},{"@id":"https://w3id.org/rrsp_convert/2202edc1-85ff-4fa8-b975-8aa1c12f0ca1","type":"Feature","properties":{"title":"Braintree, excavations 1984-90","url":"https://archaeologydataservice.ac.uk/archives/view/romangl/maprecord.cfm?id=1063","form":"complex","size":"large (9+ ha)"},"geometry":{"type":"Point","coordinates":[0.54875653,51.878773]}},{"@id":"https://w3id.org/rrsp_convert/32336921-7d31-4ae0-b63f-2797de90ca24","type":"Feature","properties":{"title":"Billericay, School","url":"https://archaeologydataservice.ac.uk/archives/view/romangl/maprecord.cfm?id=1064","form":"complex","size":"large (9+ ha)"},"geometry":{"type":"Point","coordinates":[0.41805629,51.618102]}},{"@id":"https://w3id.org/rrsp_convert/a11b6c76-c639-4da1-b4e0-099f04212395","type":"Feature","properties":{"title":"Rayne","url":"https://archaeologydataservice.ac.uk/archives/view/romangl/maprecord.cfm?id=1065","form":"unclassified","size":"small (<1 - 3 ha)"},"geometry":{"type":"Point","coordinates":[0.48650446,51.873424]}},{"@id":"https://w3id.org/rrsp_convert/fa801cb2-618e-4b7b-92d8-c5e9ba8df2c8","type":"Feature","properties":{"title":"Heybridge, Crescent Rd","url":"https://archaeologydataservice.ac.uk/archives/view/romangl/maprecord.cfm?id=1066","form":"complex","size":"large (9+ ha)"},"geometry":{"type":"Point","coordinates":[0.67817593,51.741959]}},{"@id":"https://w3id.org/rrsp_convert/cd578c6b-fc25-4cef-9bb6-3043d5d7efb6","type":"Feature","properties":{"title":"Rivenhall","url":"https://archaeologydataservice.ac.uk/archives/view/romangl/maprecord.cfm?id=1067","form":"unclassified","size":"medium (4 - 8 ha)"},"geometry":{"type":"Point","coordinates":[0.65160398,51.828907]}},{"@id":"https://w3id.org/rrsp_convert/a35e9346-c49e-4a5f-90ad-79f9e73c1587","type":"Feature","properties":{"title":"Grays","url":"https://archaeologydataservice.ac.uk/archives/view/romangl/maprecord.cfm?id=1068","form":"unclassified","size":"uncertain"},"geometry":{"type":"Point","coordinates":[0.35256689,51.483565]}},{"@id":"https://w3id.org/rrsp_convert/c15cbc06-0c1b-420c-8e0b-8265f1dd0a5b","type":"Feature","properties":{"title":"Nazeingbury","url":"https://archaeologydataservice.ac.uk/archives/view/romangl/maprecord.cfm?id=1069","form":"enclosed","size":"small (<1 - 3 ha)"},"geometry":{"type":"Point","coordinates":[0.0059907,51.740971]}},{"@id":"https://w3id.org/rrsp_convert/e34f973d-583a-4032-9156-81e45f3bb021","type":"Feature","properties":{"title":"Little Shelford, Foulness","url":"https://archaeologydataservice.ac.uk/archives/view/romangl/maprecord.cfm?id=1070","form":"unclassified","size":"uncertain"},"geometry":{"type":"Point","coordinates":[0.85620811,51.578575]}},{"@id":"https://w3id.org/rrsp_convert/adbfcf19-d73a-4d43-af57-e8e9a6f2d9b7","type":"Feature","properties":{"title":"Chigwell, Little London","url":"https://archaeologydataservice.ac.uk/archives/view/romangl/maprecord.cfm?id=1071","form":"complex","size":"large (9+ ha)"},"geometry":{"type":"Point","coordinates":[0.1014383,51.643982]}},{"@id":"https://w3id.org/rrsp_convert/f74c0bf3-6a80-4923-8feb-5924dd8e50ec","type":"Feature","properties":{"title":"Stebbing Green","url":"https://archaeologydataservice.ac.uk/archives/view/romangl/maprecord.cfm?id=1072","form":"unclassified","size":"medium (4 - 8 ha)"},"geometry":{"type":"Point","coordinates":[0.45257602,51.882679]}},{"@id":"https://w3id.org/rrsp_convert/904bb867-570b-42ae-85fe-147776960cfa","type":"Feature","properties":{"title":"Harlow, Holbrooks","url":"https://archaeologydataservice.ac.uk/archives/view/romangl/maprecord.cfm?id=1073","form":"complex","size":"medium (4 - 8 ha)"},"geometry":{"type":"Point","coordinates":[0.13000728,51.793247]}},{"@id":"https://w3id.org/rrsp_convert/7fbbb99c-1616-495a-81ae-8b3e062ab59a","type":"Feature","properties":{"title":"Duck Street, Wendens Ambo","url":"https://archaeologydataservice.ac.uk/archives/view/romangl/maprecord.cfm?id=1074","form":"unclassified","size":"uncertain"},"geometry":{"type":"Point","coordinates":[0.1983379,52.002807]}},{"@id":"https://w3id.org/rrsp_convert/cc308011-6d61-4fe3-b2da-bec8ac237c85","type":"Feature","properties":{"title":"20 Yorick Road, West Mersea","url":"https://archaeologydataservice.ac.uk/archives/view/romangl/maprecord.cfm?id=1075","form":"unclassified","size":"uncertain"},"geometry":{"type":"Point","coordinates":[0.92614438,51.774807]}},{"@id":"https://w3id.org/rrsp_convert/fe4b9842-bd17-486c-afc2-7e708c3ea455","type":"Feature","properties":{"title":"Woodlands Park, Great Dunmow","url":"https://archaeologydataservice.ac.uk/archives/view/romangl/maprecord.cfm?id=1076","form":"unclassified","size":"uncertain"},"geometry":{"type":"Point","coordinates":[0.34478531,51.877683]}},{"@id":"https://w3id.org/rrsp_convert/a6b0ed05-2a73-4c52-b43d-a4977ef7e457","type":"Feature","properties":{"title":"Rye Hill to Fairfield Trunk Main","url":"https://archaeologydataservice.ac.uk/archives/view/romangl/maprecord.cfm?id=1077","form":"unclassified","size":"uncertain"},"geometry":{"type":"Point","coordinates":[0.11114817,51.723518]}},{"@id":"https://w3id.org/rrsp_convert/4ebb4bf2-e9c7-4b8a-b46f-e126ac9cbf35","type":"Feature","properties":{"title":"Colemans Farm, Rivenhall End","url":"https://archaeologydataservice.ac.uk/archives/view/romangl/maprecord.cfm?id=1078","form":"unclassified","size":"uncertain"},"geometry":{"type":"Point","coordinates":[0.6557276,51.810431]}},{"@id":"https://w3id.org/rrsp_convert/532e18c8-f2c0-4088-b9db-204e94326b12","type":"Feature","properties":{"title":"Haverhill Business Park, Sturmer","url":"https://archaeologydataservice.ac.uk/archives/view/romangl/maprecord.cfm?id=1079","form":"complex","size":"small (<1 - 3 ha)"},"geometry":{"type":"Point","coordinates":[0.44099965,52.071047]}},{"@id":"https://w3id.org/rrsp_convert/07d87bf8-b312-4f61-8533-242f757c138a","type":"Feature","properties":{"title":"Great Dumnow, Primary school site at the former Newton works","url":"https://archaeologydataservice.ac.uk/archives/view/romangl/maprecord.cfm?id=1080","form":"complex","size":"medium (4 - 8 ha)"},"geometry":{"type":"Point","coordinates":[0.34314234,51.874029]}},{"@id":"https://w3id.org/rrsp_convert/3a40d70b-dde9-469e-b76e-5112f9ab5da6","type":"Feature","properties":{"title":"Birch Pit western extension, Maldon Road, Colchester","url":"https://archaeologydataservice.ac.uk/archives/view/romangl/maprecord.cfm?id=1081","form":"unclassified","size":"small (<1 - 3 ha)"},"geometry":{"type":"Point","coordinates":[0.79276979,51.838219]}},{"@id":"https://w3id.org/rrsp_convert/1f9b851c-3f82-4504-94a4-0004a1f805e5","type":"Feature","properties":{"title":"Birch Spring, Highwood, Writtle","url":"https://archaeologydataservice.ac.uk/archives/view/romangl/maprecord.cfm?id=1082","form":"enclosed","size":"small (<1 - 3 ha)"},"geometry":{"type":"Point","coordinates":[0.35194402,51.749169]}},{"@id":"https://w3id.org/rrsp_convert/4aaaf0ef-1021-4f32-9fb6-8813f2315a0b","type":"Feature","properties":{"title":"Gilden Way, Harlow, Essex","url":"https://archaeologydataservice.ac.uk/archives/view/romangl/maprecord.cfm?id=1083","form":"unclassified","size":"small (<1 - 3 ha)"},"geometry":{"type":"Point","coordinates":[0.14661259,51.789294]}},{"@id":"https://w3id.org/rrsp_convert/7359e500-f3ab-47f3-b9ae-c20f276be784","type":"Feature","properties":{"title":"Harlowbury","url":"https://archaeologydataservice.ac.uk/archives/view/romangl/maprecord.cfm?id=1084","form":"unclassified","size":"medium (4 - 8 ha)"},"geometry":{"type":"Point","coordinates":[0.14505563,51.792236]}},{"@id":"https://w3id.org/rrsp_convert/5ea7dda8-b222-4e3b-b074-bf5646d74033","type":"Feature","properties":{"title":"Braintree, 95-103 High Street","url":"https://archaeologydataservice.ac.uk/archives/view/romangl/maprecord.cfm?id=1085","form":"complex","size":"medium (4 - 8 ha)"},"geometry":{"type":"Point","coordinates":[0.55106744,51.876987]}},{"@id":"https://w3id.org/rrsp_convert/87e4538c-6f2f-4ddd-92c7-eabf53ec57c2","type":"Feature","properties":{"title":"Great Dunmow, 2 Chequers Lane","url":"https://archaeologydataservice.ac.uk/archives/view/romangl/maprecord.cfm?id=1086","form":"complex","size":"large (9+ ha)"},"geometry":{"type":"Point","coordinates":[0.35860081,51.872371]}},{"@id":"https://w3id.org/rrsp_convert/f9fd4ab4-0e12-4f02-b688-7558224542ff","type":"Feature","properties":{"title":"Prentice Place, Carter Mead, Harlow","url":"https://archaeologydataservice.ac.uk/archives/view/romangl/maprecord.cfm?id=1087","form":"unclassified","size":"uncertain"},"geometry":{"type":"Point","coordinates":[0.13059057,51.757312]}},{"@id":"https://w3id.org/rrsp_convert/a2739677-9d40-4457-8c16-c3fad14c06af","type":"Feature","properties":{"title":"Colchester Garrison Areas J, K, L and N","url":"https://archaeologydataservice.ac.uk/archives/view/romangl/maprecord.cfm?id=1088","form":"unclassified","size":"small (<1 - 3 ha)"},"geometry":{"type":"Point","coordinates":[0.89122918,51.877362]}},{"@id":"https://w3id.org/rrsp_convert/73a44ebd-a90a-49d7-b824-c0d305831bb4","type":"Feature","properties":{"title":"Colchester Garrison Area S2 (N&S)","url":"https://archaeologydataservice.ac.uk/archives/view/romangl/maprecord.cfm?id=1089","form":"unclassified","size":"uncertain"},"geometry":{"type":"Point","coordinates":[0.89512783,51.860925]}},{"@id":"https://w3id.org/rrsp_convert/e6444d49-3346-49aa-ba7e-d2ecabc8a5b9","type":"Feature","properties":{"title":"Lufkins Farm, Great Bentley","url":"https://archaeologydataservice.ac.uk/archives/view/romangl/maprecord.cfm?id=1090","form":"unclassified","size":"uncertain"},"geometry":{"type":"Point","coordinates":[1.0445793,51.858499]}},{"@id":"https://w3id.org/rrsp_convert/75ea2488-a32a-4c54-bef6-355951eaa709","type":"Feature","properties":{"title":"Abbotts Hall Farm, Great Wigborough","url":"https://archaeologydataservice.ac.uk/archives/view/romangl/maprecord.cfm?id=1091","form":"unclassified","size":"uncertain"},"geometry":{"type":"Point","coordinates":[0.85493364,51.788161]}},{"@id":"https://w3id.org/rrsp_convert/6c73ba8e-8d14-460b-b5eb-67f7c8b78526","type":"Feature","properties":{"title":"Abbotstone Field, Warren Lane, Stanway","url":"https://archaeologydataservice.ac.uk/archives/view/romangl/maprecord.cfm?id=1092","form":"complex","size":"small (<1 - 3 ha)"},"geometry":{"type":"Point","coordinates":[0.82082897,51.869027]}},{"@id":"https://w3id.org/rrsp_convert/f8c23161-9e63-4da2-96ce-0c142e2ceccf","type":"Feature","properties":{"title":"Maltings Lane, Witham","url":"https://archaeologydataservice.ac.uk/archives/view/romangl/maprecord.cfm?id=1093","form":"complex","size":"small (<1 - 3 ha)"},"geometry":{"type":"Point","coordinates":[0.63014922,51.788011]}},{"@id":"https://w3id.org/rrsp_convert/5da3b427-ba77-4e11-8a12-28c5b52a24c7","type":"Feature","properties":{"title":"The Old Sugar Beet Works, Felsted","url":"https://archaeologydataservice.ac.uk/archives/view/romangl/maprecord.cfm?id=1094","form":"unclassified","size":"uncertain"},"geometry":{"type":"Point","coordinates":[0.4152287,51.863668]}},{"@id":"https://w3id.org/rrsp_convert/3f214d58-f9ce-46e0-b8f2-2249402a2685","type":"Feature","properties":{"title":"Thorpe Hall, Station Road, Thorpe-le-Soken","url":"https://archaeologydataservice.ac.uk/archives/view/romangl/maprecord.cfm?id=1095","form":"unclassified","size":"uncertain"},"geometry":{"type":"Point","coordinates":[1.1707671,51.851763]}},{"@id":"https://w3id.org/rrsp_convert/c09493a2-63f8-48bd-b69e-52a038e23ac6","type":"Feature","properties":{"title":"London Gateway, Stanford Wharf Nature Reserve, Stanford-le-Hope","url":"https://archaeologydataservice.ac.uk/archives/view/romangl/maprecord.cfm?id=1096","form":"complex","size":"uncertain"},"geometry":{"type":"Point","coordinates":[0.44511734,51.503327]}},{"@id":"https://w3id.org/rrsp_convert/c419267c-3929-4677-90da-d75e890f8b1d","type":"Feature","properties":{"title":"Turner Village Hospital, Colchester","url":"https://archaeologydataservice.ac.uk/archives/view/romangl/maprecord.cfm?id=1097","form":"unclassified","size":"uncertain"},"geometry":{"type":"Point","coordinates":[0.8996214,51.904793]}},{"@id":"https://w3id.org/rrsp_convert/9ea536ca-d4c6-4849-8366-a531bcd7d211","type":"Feature","properties":{"title":"Downhouse Farm","url":"https://archaeologydataservice.ac.uk/archives/view/romangl/maprecord.cfm?id=1098","form":"unclassified","size":"small (<1 - 3 ha)"},"geometry":{"type":"Point","coordinates":[0.52390892,51.685274]}},{"@id":"https://w3id.org/rrsp_convert/368f2544-8347-4bac-abcb-3ded319774cf","type":"Feature","properties":{"title":"Heybridge, Oak Tree Meadow","url":"https://archaeologydataservice.ac.uk/archives/view/romangl/maprecord.cfm?id=1099","form":"complex","size":"large (9+ ha)"},"geometry":{"type":"Point","coordinates":[0.67646373,51.737502]}},{"@id":"https://w3id.org/rrsp_convert/aa9b0e96-a2ef-4c0e-bd72-092841262680","type":"Feature","properties":{"title":"Kell Field, Petches Yew Farm, Finchingfield","url":"https://archaeologydataservice.ac.uk/archives/view/romangl/maprecord.cfm?id=1100","form":"unclassified","size":"uncertain"},"geometry":{"type":"Point","coordinates":[0.47301451,51.947899]}},{"@id":"https://w3id.org/rrsp_convert/bc6d9f4d-28ea-4239-ab4e-fd8ccd079411","type":"Feature","properties":{"title":"Old Hall and Generals Farm, Boreham","url":"https://archaeologydataservice.ac.uk/archives/view/romangl/maprecord.cfm?id=1101","form":"unclassified","size":"uncertain"},"geometry":{"type":"Point","coordinates":[0.55715088,51.750079]}},{"@id":"https://w3id.org/rrsp_convert/11e8e2fb-e68e-4c74-9cd5-f3f39f086f8d","type":"Feature","properties":{"title":"Dry Street, Basildon","url":"https://archaeologydataservice.ac.uk/archives/view/romangl/maprecord.cfm?id=1102","form":"unclassified","size":"uncertain"},"geometry":{"type":"Point","coordinates":[0.44651847,51.556358]}},{"@id":"https://w3id.org/rrsp_convert/84af84c3-1cae-4835-9a94-6dd5d56db07b","type":"Feature","properties":{"title":"Great Dunmow, St Mary's Primary School","url":"https://archaeologydataservice.ac.uk/archives/view/romangl/maprecord.cfm?id=1103","form":"complex","size":"large (9+ ha)"},"geometry":{"type":"Point","coordinates":[0.35751914,51.871134]}},{"@id":"https://w3id.org/rrsp_convert/91d4e99a-6278-4bd9-abff-28d536fb7a9b","type":"Feature","properties":{"title":"White Notley","url":"https://archaeologydataservice.ac.uk/archives/view/romangl/maprecord.cfm?id=1104","form":"enclosed","size":"small (<1 - 3 ha)"},"geometry":{"type":"Point","coordinates":[0.58536548,51.836093]}},{"@id":"https://w3id.org/rrsp_convert/f0785db3-e54a-4591-b7c8-dc83abc9a893","type":"Feature","properties":{"title":"Stanway","url":"https://archaeologydataservice.ac.uk/archives/view/romangl/maprecord.cfm?id=1105","form":"unclassified","size":"uncertain"},"geometry":{"type":"Point","coordinates":[0.83817957,51.86771]}},{"@id":"https://w3id.org/rrsp_convert/c4eca23a-8a48-4f92-8fcf-25da20bc5c5d","type":"Feature","properties":{"title":"Gosbecks, Colchester","url":"https://archaeologydataservice.ac.uk/archives/view/romangl/maprecord.cfm?id=1106","form":"complex","size":"medium (4 - 8 ha)"},"geometry":{"type":"Point","coordinates":[0.85690186,51.865817]}},{"@id":"https://w3id.org/rrsp_convert/3386a550-6552-460f-b9ab-32234897e6f4","type":"Feature","properties":{"title":"Passingford","url":"https://archaeologydataservice.ac.uk/archives/view/romangl/maprecord.cfm?id=1107","form":"unenclosed","size":"small (<1 - 3 ha)"},"geometry":{"type":"Point","coordinates":[0.18871826,51.655516]}},{"@id":"https://w3id.org/rrsp_convert/be0be7b6-7af2-4660-9173-a408b34ecb91","type":"Feature","properties":{"title":"Hob's Hole","url":"https://archaeologydataservice.ac.uk/archives/view/romangl/maprecord.cfm?id=1108","form":"unclassified","size":"uncertain"},"geometry":{"type":"Point","coordinates":[0.29020701,51.572195]}},{"@id":"https://w3id.org/rrsp_convert/f4baec1c-cc2d-4de8-8fcf-99ca153ab75a","type":"Feature","properties":{"title":"Heybridge, Elms Farm","url":"https://archaeologydataservice.ac.uk/archives/view/romangl/maprecord.cfm?id=1109","form":"complex","size":"large (9+ ha)"},"geometry":{"type":"Point","coordinates":[0.67685783,51.741963]}},{"@id":"https://w3id.org/rrsp_convert/dddb481d-471f-4b80-87be-bcc7bdd7cb0a","type":"Feature","properties":{"title":"Rawreth","url":"https://archaeologydataservice.ac.uk/archives/view/romangl/maprecord.cfm?id=1110","form":"unclassified","size":"small (<1 - 3 ha)"},"geometry":{"type":"Point","coordinates":[0.56230321,51.607028]}},{"@id":"https://w3id.org/rrsp_convert/755bae26-666d-4263-a4a5-89f914589115","type":"Feature","properties":{"title":"Braintree, 51-57 Rayne Road","url":"https://archaeologydataservice.ac.uk/archives/view/romangl/maprecord.cfm?id=1111","form":"complex","size":"large (9+ ha)"},"geometry":{"type":"Point","coordinates":[0.54546015,51.878808]}},{"@id":"https://w3id.org/rrsp_convert/3e0ac22b-3111-4318-bf88-9f948f50fea2","type":"Feature","properties":{"title":"Kirkee McMunn barracks, Colchester","url":"https://archaeologydataservice.ac.uk/archives/view/romangl/maprecord.cfm?id=1112","form":"unclassified","size":"uncertain"},"geometry":{"type":"Point","coordinates":[0.88568545,51.872255]}},{"@id":"https://w3id.org/rrsp_convert/dfe9dbe0-3a64-4fe0-98d7-1d7076ce594e","type":"Feature","properties":{"title":"Ambresbury Banks, Epping","url":"https://archaeologydataservice.ac.uk/archives/view/romangl/maprecord.cfm?id=1113","form":"enclosed","size":"medium (4 - 8 ha)"},"geometry":{"type":"Point","coordinates":[0.077208887,51.683081]}},{"@id":"https://w3id.org/rrsp_convert/77d1ce98-3671-420e-9dac-fed89b28b983","type":"Feature","properties":{"title":"Great Dunmow, Haslers Lane","url":"https://archaeologydataservice.ac.uk/archives/view/romangl/maprecord.cfm?id=1114","form":"complex","size":"large (9+ ha)"},"geometry":{"type":"Point","coordinates":[0.36494709,51.868727]}},{"@id":"https://w3id.org/rrsp_convert/3748acbf-215e-4bea-a92b-52926ee1377f","type":"Feature","properties":{"title":"Stanley Road, Great Chesterford","url":"https://archaeologydataservice.ac.uk/archives/view/romangl/maprecord.cfm?id=1115","form":"unclassified","size":"uncertain"},"geometry":{"type":"Point","coordinates":[0.20142551,52.065696]}},{"@id":"https://w3id.org/rrsp_convert/1043e41e-10c9-44f2-98b2-65acebc39ac9","type":"Feature","properties":{"title":"East View Close, Radwinter","url":"https://archaeologydataservice.ac.uk/archives/view/romangl/maprecord.cfm?id=1116","form":"complex","size":"uncertain"},"geometry":{"type":"Point","coordinates":[0.34240908,52.012673]}},{"@id":"https://w3id.org/rrsp_convert/87e3c381-f985-4529-b3b2-33a5718c7572","type":"Feature","properties":{"title":"Bradwell Trout Farm, The Slades, Cuthedge Lane, Bradwell","url":"https://archaeologydataservice.ac.uk/archives/view/romangl/maprecord.cfm?id=1117","form":"unclassified","size":"small (<1 - 3 ha)"},"geometry":{"type":"Point","coordinates":[0.64791037,51.868605]}},{"@id":"https://w3id.org/rrsp_convert/92f86e42-262c-4157-8e44-54de36fb58cd","type":"Feature","properties":{"title":"Duxford","url":"https://archaeologydataservice.ac.uk/archives/view/romangl/maprecord.cfm?id=2001","form":"unclassified","size":"uncertain"},"geometry":{"type":"Point","coordinates":[0.15961566,52.091198]}},{"@id":"https://w3id.org/rrsp_convert/3abd2f81-68a4-411e-829a-35b21105f954","type":"Feature","properties":{"title":"Little Paxton Quarry","url":"https://archaeologydataservice.ac.uk/archives/view/romangl/maprecord.cfm?id=2002","form":"complex","size":"uncertain"},"geometry":{"type":"Point","coordinates":[-0.23826708,52.279498]}},{"@id":"https://w3id.org/rrsp_convert/ab346262-a377-403d-b4c1-c8b0926d1a7b","type":"Feature","properties":{"title":"Harradine's Farm, Woodhurst","url":"https://archaeologydataservice.ac.uk/archives/view/romangl/maprecord.cfm?id=2003","form":"unclassified","size":"uncertain"},"geometry":{"type":"Point","coordinates":[-0.069620577,52.366902]}},{"@id":"https://w3id.org/rrsp_convert/5151bd5a-d195-4420-b3f9-523a5f0a26a3","type":"Feature","properties":{"title":"Paston, Peterborough","url":"https://archaeologydataservice.ac.uk/archives/view/romangl/maprecord.cfm?id=2004","form":"unclassified","size":"small (<1 - 3 ha)"},"geometry":{"type":"Point","coordinates":[-0.23833416,52.611576]}},{"@id":"https://w3id.org/rrsp_convert/d421c174-fa28-4825-a2f9-0437214f4db2","type":"Feature","properties":{"title":"Norman Cross","url":"https://archaeologydataservice.ac.uk/archives/view/romangl/maprecord.cfm?id=2005","form":"unclassified","size":"small (<1 - 3 ha)"},"geometry":{"type":"Point","coordinates":[-0.29399407,52.501506]}},{"@id":"https://w3id.org/rrsp_convert/b2d60997-0374-4368-8d34-ecd717f7d470","type":"Feature","properties":{"title":"Tort Hill (West & East)","url":"https://archaeologydataservice.ac.uk/archives/view/romangl/maprecord.cfm?id=2006","form":"complex","size":"medium (4 - 8 ha)"},"geometry":{"type":"Point","coordinates":[-0.27707499,52.447369]}},{"@id":"https://w3id.org/rrsp_convert/fa5651b0-ffd4-4da2-85d8-1f1d5594722d","type":"Feature","properties":{"title":"New Wimpole","url":"https://archaeologydataservice.ac.uk/archives/view/romangl/maprecord.cfm?id=2007","form":"enclosed","size":"small (<1 - 3 ha)"},"geometry":{"type":"Point","coordinates":[-0.039516169,52.127498]}},{"@id":"https://w3id.org/rrsp_convert/e21631f8-c80c-4739-a69d-e737dbd25dc5","type":"Feature","properties":{"title":"Foxton","url":"https://archaeologydataservice.ac.uk/archives/view/romangl/maprecord.cfm?id=2008","form":"complex","size":"small (<1 - 3 ha)"},"geometry":{"type":"Point","coordinates":[0.044056449,52.114506]}},{"@id":"https://w3id.org/rrsp_convert/d77ef233-ecb3-4a9b-9d8c-b071be0f6b4c","type":"Feature","properties":{"title":"Ash Plantation (Site 2)","url":"https://archaeologydataservice.ac.uk/archives/view/romangl/maprecord.cfm?id=2009","form":"enclosed","size":"small (<1 - 3 ha)"},"geometry":{"type":"Point","coordinates":[-0.051557008,52.221149]}},{"@id":"https://w3id.org/rrsp_convert/deb60124-c747-4b06-9355-c0332ffb8d28","type":"Feature","properties":{"title":"Bourn Airfield (Site 3)","url":"https://archaeologydataservice.ac.uk/archives/view/romangl/maprecord.cfm?id=2010","form":"unclassified","size":"small (<1 - 3 ha)"},"geometry":{"type":"Point","coordinates":[-0.038360639,52.219608]}},{"@id":"https://w3id.org/rrsp_convert/bb429b05-926b-4015-8704-5728c60a4d84","type":"Feature","properties":{"title":"Childerley gate (Site 5)","url":"https://archaeologydataservice.ac.uk/archives/view/romangl/maprecord.cfm?id=2011","form":"complex","size":"small (<1 - 3 ha)"},"geometry":{"type":"Point","coordinates":[-0.010946317,52.220121]}},{"@id":"https://w3id.org/rrsp_convert/d45a344b-0b3a-4c47-9e3b-7edb496ce517","type":"Feature","properties":{"title":"Orton Longueville","url":"https://archaeologydataservice.ac.uk/archives/view/romangl/maprecord.cfm?id=2012","form":"enclosed","size":"small (<1 - 3 ha)"},"geometry":{"type":"Point","coordinates":[-0.28135516,52.542619]}},{"@id":"https://w3id.org/rrsp_convert/0df4a875-97ab-44c7-ba29-e349afcbb83a","type":"Feature","properties":{"title":"Orton hall Farm","url":"https://archaeologydataservice.ac.uk/archives/view/romangl/maprecord.cfm?id=2013","form":"complex","size":"medium (4 - 8 ha)"},"geometry":{"type":"Point","coordinates":[-0.26651064,52.545099]}},{"@id":"https://w3id.org/rrsp_convert/8ba91422-c9f2-4f7b-98ea-b86d68aa3a62","type":"Feature","properties":{"title":"Plant's Farm, Maxey","url":"https://archaeologydataservice.ac.uk/archives/view/romangl/maprecord.cfm?id=2014","form":"unclassified","size":"small (<1 - 3 ha)"},"geometry":{"type":"Point","coordinates":[-0.35272855,52.65796]}},{"@id":"https://w3id.org/rrsp_convert/0e2ca208-47f8-49a8-b1f6-fb65e6eab4c1","type":"Feature","properties":{"title":"Barnack","url":"https://archaeologydataservice.ac.uk/archives/view/romangl/maprecord.cfm?id=2015","form":"complex","size":"medium (4 - 8 ha)"},"geometry":{"type":"Point","coordinates":[-0.40367217,52.646376]}},{"@id":"https://w3id.org/rrsp_convert/dff841fc-011e-4ab4-8c02-379797bfcd0c","type":"Feature","properties":{"title":"Swavesey","url":"https://archaeologydataservice.ac.uk/archives/view/romangl/maprecord.cfm?id=2016","form":"unclassified","size":"uncertain"},"geometry":{"type":"Point","coordinates":[-0.002785168,52.30668]}},{"@id":"https://w3id.org/rrsp_convert/914fcb52-6fba-451e-b5b3-7bf7a7b5e7fe","type":"Feature","properties":{"title":"Windmill","url":"https://archaeologydataservice.ac.uk/archives/view/romangl/maprecord.cfm?id=2017","form":"unclassified","size":"uncertain"},"geometry":{"type":"Point","coordinates":[0.024259701,52.300474]}},{"@id":"https://w3id.org/rrsp_convert/1b2ee4dd-f9a3-4808-8548-176b026ba169","type":"Feature","properties":{"title":"Arbury","url":"https://archaeologydataservice.ac.uk/archives/view/romangl/maprecord.cfm?id=2018","form":"unclassified","size":"uncertain"},"geometry":{"type":"Point","coordinates":[0.12903899,52.235302]}},{"@id":"https://w3id.org/rrsp_convert/c453da25-5e45-4a38-b802-b7dafca3fb9b","type":"Feature","properties":{"title":"Scotland Farm","url":"https://archaeologydataservice.ac.uk/archives/view/romangl/maprecord.cfm?id=2019","form":"enclosed","size":"small (<1 - 3 ha)"},"geometry":{"type":"Point","coordinates":[-0.00135783,52.22271]}},{"@id":"https://w3id.org/rrsp_convert/6ff4f022-257c-4048-ba22-4993452264fd","type":"Feature","properties":{"title":"Bluntisham","url":"https://archaeologydataservice.ac.uk/archives/view/romangl/maprecord.cfm?id=2020","form":"unclassified","size":"small (<1 - 3 ha)"},"geometry":{"type":"Point","coordinates":[0.008578499,52.351931]}},{"@id":"https://w3id.org/rrsp_convert/3c14b242-f465-491f-8fdb-dcb9e28b6e73","type":"Feature","properties":{"title":"Bartlow Park/Hills","url":"https://archaeologydataservice.ac.uk/archives/view/romangl/maprecord.cfm?id=2021","form":"unclassified","size":"uncertain"},"geometry":{"type":"Point","coordinates":[0.31385221,52.079979]}},{"@id":"https://w3id.org/rrsp_convert/bbd2b705-9c65-49eb-8c38-5e9cf8dcbe2a","type":"Feature","properties":{"title":"Blackhorse Lane, Swavesey","url":"https://archaeologydataservice.ac.uk/archives/view/romangl/maprecord.cfm?id=2022","form":"unclassified","size":"uncertain"},"geometry":{"type":"Point","coordinates":[-0.006950314,52.300492]}},{"@id":"https://w3id.org/rrsp_convert/9c111b7e-0007-4a04-b1ac-2a17f16acc51","type":"Feature","properties":{"title":"Cedar Close, March","url":"https://archaeologydataservice.ac.uk/archives/view/romangl/maprecord.cfm?id=2023","form":"unclassified","size":"uncertain"},"geometry":{"type":"Point","coordinates":[0.096023479,52.554969]}},{"@id":"https://w3id.org/rrsp_convert/87b39bef-452a-4b6b-bae2-af47d30e2525","type":"Feature","properties":{"title":"Hutchison Site, Addenbrookes","url":"https://archaeologydataservice.ac.uk/archives/view/romangl/maprecord.cfm?id=2024","form":"complex","size":"medium (4 - 8 ha)"},"geometry":{"type":"Point","coordinates":[0.13744379,52.177026]}},{"@id":"https://w3id.org/rrsp_convert/8833bc4e-0dc6-4cdd-bdf4-e63a963086ed","type":"Feature","properties":{"title":"Rectory Farm, Great Shelford","url":"https://archaeologydataservice.ac.uk/archives/view/romangl/maprecord.cfm?id=2025","form":"complex","size":"medium (4 - 8 ha)"},"geometry":{"type":"Point","coordinates":[0.11065738,52.151881]}},{"@id":"https://w3id.org/rrsp_convert/0048369b-05db-46e4-9e16-3799a43a101e","type":"Feature","properties":{"title":"Hurst Lane Reservoir, Ely","url":"https://archaeologydataservice.ac.uk/archives/view/romangl/maprecord.cfm?id=2026","form":"complex","size":"medium (4 - 8 ha)"},"geometry":{"type":"Point","coordinates":[0.2392812,52.410609]}},{"@id":"https://w3id.org/rrsp_convert/7c1cf2bd-260e-4fef-bf34-aa75010f622a","type":"Feature","properties":{"title":"Parnwell, Peterborough","url":"https://archaeologydataservice.ac.uk/archives/view/romangl/maprecord.cfm?id=2027","form":"unclassified","size":"small (<1 - 3 ha)"},"geometry":{"type":"Point","coordinates":[-0.20176028,52.593988]}},{"@id":"https://w3id.org/rrsp_convert/4047e4c9-2003-44a8-852a-47c564344c69","type":"Feature","properties":{"title":"Parson Drove","url":"https://archaeologydataservice.ac.uk/archives/view/romangl/maprecord.cfm?id=2028","form":"unclassified","size":"small (<1 - 3 ha)"},"geometry":{"type":"Point","coordinates":[0.030494799,52.656454]}},{"@id":"https://w3id.org/rrsp_convert/59ac166f-35b2-4a8b-930e-c3d5b20652cd","type":"Feature","properties":{"title":"Haddon","url":"https://archaeologydataservice.ac.uk/archives/view/romangl/maprecord.cfm?id=2029","form":"complex","size":"small (<1 - 3 ha)"},"geometry":{"type":"Point","coordinates":[-0.32246068,52.531232]}},{"@id":"https://w3id.org/rrsp_convert/a38e74db-d1dd-4024-81c5-f488c5d7c8c1","type":"Feature","properties":{"title":"Maxey, Bardyke Field","url":"https://archaeologydataservice.ac.uk/archives/view/romangl/maprecord.cfm?id=2030","form":"unclassified","size":"small (<1 - 3 ha)"},"geometry":{"type":"Point","coordinates":[-0.3382928,52.655367]}},{"@id":"https://w3id.org/rrsp_convert/6bdef7da-3d64-4dcd-b1f7-061a33b02014","type":"Feature","properties":{"title":"Wardy Hill","url":"https://archaeologydataservice.ac.uk/archives/view/romangl/maprecord.cfm?id=2031","form":"enclosed","size":"small (<1 - 3 ha)"},"geometry":{"type":"Point","coordinates":[0.16309638,52.415921]}},{"@id":"https://w3id.org/rrsp_convert/890863e4-afa0-4a8b-93f9-225e4fed7f5e","type":"Feature","properties":{"title":"Lower Cambourne","url":"https://archaeologydataservice.ac.uk/archives/view/romangl/maprecord.cfm?id=2032","form":"complex","size":"medium (4 - 8 ha)"},"geometry":{"type":"Point","coordinates":[-0.082681862,52.217765]}},{"@id":"https://w3id.org/rrsp_convert/2a4852d9-f228-495c-843a-db00e38b0ffc","type":"Feature","properties":{"title":"Poplar Plantation","url":"https://archaeologydataservice.ac.uk/archives/view/romangl/maprecord.cfm?id=2033","form":"enclosed","size":"small (<1 - 3 ha)"},"geometry":{"type":"Point","coordinates":[-0.075250221,52.21697]}},{"@id":"https://w3id.org/rrsp_convert/670ca2cb-5ff9-4a39-a443-03ef818b5934","type":"Feature","properties":{"title":"Mill Farm","url":"https://archaeologydataservice.ac.uk/archives/view/romangl/maprecord.cfm?id=2034","form":"enclosed","size":"small (<1 - 3 ha)"},"geometry":{"type":"Point","coordinates":[-0.074973946,52.209817]}},{"@id":"https://w3id.org/rrsp_convert/b11588bc-f365-4553-b927-f7e70585d9c6","type":"Feature","properties":{"title":"Knapwell Plantation","url":"https://archaeologydataservice.ac.uk/archives/view/romangl/maprecord.cfm?id=2035","form":"enclosed","size":"small (<1 - 3 ha)"},"geometry":{"type":"Point","coordinates":[-0.066004699,52.224237]}},{"@id":"https://w3id.org/rrsp_convert/f9c3b76c-1a35-455f-bb62-1e0eff23231e","type":"Feature","properties":{"title":"Jeavsons Lane","url":"https://archaeologydataservice.ac.uk/archives/view/romangl/maprecord.cfm?id=2036","form":"complex","size":"small (<1 - 3 ha)"},"geometry":{"type":"Point","coordinates":[-0.066022559,52.213717]}},{"@id":"https://w3id.org/rrsp_convert/f21b917b-a47b-4f0a-b87d-bc6f29584e40","type":"Feature","properties":{"title":"Broadway Farm","url":"https://archaeologydataservice.ac.uk/archives/view/romangl/maprecord.cfm?id=2037","form":"enclosed","size":"small (<1 - 3 ha)"},"geometry":{"type":"Point","coordinates":[-0.066846614,52.206537]}},{"@id":"https://w3id.org/rrsp_convert/5fcd219d-99e4-4d2c-9b55-29e12ed4f3a3","type":"Feature","properties":{"title":"Little Common Farm","url":"https://archaeologydataservice.ac.uk/archives/view/romangl/maprecord.cfm?id=2038","form":"complex","size":"small (<1 - 3 ha)"},"geometry":{"type":"Point","coordinates":[-0.05265655,52.214756]}},{"@id":"https://w3id.org/rrsp_convert/96e90d17-6714-48e0-a849-e6d6173707b2","type":"Feature","properties":{"title":"The Fields","url":"https://archaeologydataservice.ac.uk/archives/view/romangl/maprecord.cfm?id=2039","form":"unclassified","size":"uncertain"},"geometry":{"type":"Point","coordinates":[-0.052735147,52.212959]}},{"@id":"https://w3id.org/rrsp_convert/2190c4b7-6063-485c-9865-d339a1cbec9e","type":"Feature","properties":{"title":"The Grange","url":"https://archaeologydataservice.ac.uk/archives/view/romangl/maprecord.cfm?id=2040","form":"enclosed","size":"small (<1 - 3 ha)"},"geometry":{"type":"Point","coordinates":[-0.050904414,52.21131]}},{"@id":"https://w3id.org/rrsp_convert/a7aa2fe3-218d-4a8a-9dec-4bb904c70cd4","type":"Feature","properties":{"title":"Stonea Camp","url":"https://archaeologydataservice.ac.uk/archives/view/romangl/maprecord.cfm?id=2041","form":"enclosed","size":"medium (4 - 8 ha)"},"geometry":{"type":"Point","coordinates":[0.1316835,52.516416]}},{"@id":"https://w3id.org/rrsp_convert/1af64f8d-9326-4ee7-b42c-10c1efbafa86","type":"Feature","properties":{"title":"Stonea Grange","url":"https://archaeologydataservice.ac.uk/archives/view/romangl/maprecord.cfm?id=2042","form":"complex","size":"large (9+ ha)"},"geometry":{"type":"Point","coordinates":[0.13453571,52.521741]}},{"@id":"https://w3id.org/rrsp_convert/9e5f6aa9-bb6f-4b53-a0c1-f37d4db805bc","type":"Feature","properties":{"title":"Watersmeet, Mill Common, Huntingdon","url":"https://archaeologydataservice.ac.uk/archives/view/romangl/maprecord.cfm?id=2043","form":"unclassified","size":"uncertain"},"geometry":{"type":"Point","coordinates":[-0.18249128,52.326342]}},{"@id":"https://w3id.org/rrsp_convert/4202a83f-49c5-42b3-918f-3857612e0c35","type":"Feature","properties":{"title":"Gallows Hill, Swaffham Prior","url":"https://archaeologydataservice.ac.uk/archives/view/romangl/maprecord.cfm?id=2044","form":"enclosed","size":"uncertain"},"geometry":{"type":"Point","coordinates":[0.31038529,52.254245]}},{"@id":"https://w3id.org/rrsp_convert/7a0ecca8-383b-43bb-be73-ef19787f4b47","type":"Feature","properties":{"title":"South of Tunbridge lane, Bottisham","url":"https://archaeologydataservice.ac.uk/archives/view/romangl/maprecord.cfm?id=2045","form":"complex","size":"uncertain"},"geometry":{"type":"Point","coordinates":[0.26098949,52.225078]}},{"@id":"https://w3id.org/rrsp_convert/36ffefeb-20d2-4289-884c-4f6f76442df1","type":"Feature","properties":{"title":"Eaton Socon","url":"https://archaeologydataservice.ac.uk/archives/view/romangl/maprecord.cfm?id=2046","form":"complex","size":"small (<1 - 3 ha)"},"geometry":{"type":"Point","coordinates":[-0.29207321,52.208753]}},{"@id":"https://w3id.org/rrsp_convert/c21cd10d-9b96-4e8d-add7-174b748828be","type":"Feature","properties":{"title":"Prickwillow Road, Ely","url":"https://archaeologydataservice.ac.uk/archives/view/romangl/maprecord.cfm?id=2047","form":"complex","size":"uncertain"},"geometry":{"type":"Point","coordinates":[0.28163835,52.407668]}},{"@id":"https://w3id.org/rrsp_convert/c937a07c-7263-4476-8852-165a12753a3b","type":"Feature","properties":{"title":"Little Paxton Quarry shrine","url":"https://archaeologydataservice.ac.uk/archives/view/romangl/maprecord.cfm?id=2048","form":"unclassified","size":"uncertain"},"geometry":{"type":"Point","coordinates":[-0.23432138,52.277344]}},{"@id":"https://w3id.org/rrsp_convert/9e36187f-f013-4150-a36a-f63d4a65bcc2","type":"Feature","properties":{"title":"Penfold Farm, Milton","url":"https://archaeologydataservice.ac.uk/archives/view/romangl/maprecord.cfm?id=2049","form":"unclassified","size":"uncertain"},"geometry":{"type":"Point","coordinates":[0.18251021,52.249036]}},{"@id":"https://w3id.org/rrsp_convert/5afa17ef-edc3-43eb-a26b-815dc3430db1","type":"Feature","properties":{"title":"Edix Hill, Barrington","url":"https://archaeologydataservice.ac.uk/archives/view/romangl/maprecord.cfm?id=2050","form":"unclassified","size":"small (<1 - 3 ha)"},"geometry":{"type":"Point","coordinates":[-0.000261557,52.130067]}},{"@id":"https://w3id.org/rrsp_convert/813b8aef-f174-482c-bfcf-a055a9857131","type":"Feature","properties":{"title":"Madingley","url":"https://archaeologydataservice.ac.uk/archives/view/romangl/maprecord.cfm?id=2051","form":"unclassified","size":"uncertain"},"geometry":{"type":"Point","coordinates":[0.049871949,52.219224]}},{"@id":"https://w3id.org/rrsp_convert/b1370b9a-9313-4096-bc55-8543b51a8e1e","type":"Feature","properties":{"title":"Wimpole","url":"https://archaeologydataservice.ac.uk/archives/view/romangl/maprecord.cfm?id=2052","form":"complex","size":"large (9+ ha)"},"geometry":{"type":"Point","coordinates":[-0.05514368,52.122578]}},{"@id":"https://w3id.org/rrsp_convert/3121992c-4bdd-45db-b088-14f21931171d","type":"Feature","properties":{"title":"Great Staughton","url":"https://archaeologydataservice.ac.uk/archives/view/romangl/maprecord.cfm?id=2053","form":"unclassified","size":"uncertain"},"geometry":{"type":"Point","coordinates":[-0.33927499,52.253844]}},{"@id":"https://w3id.org/rrsp_convert/b3dcf91b-7893-4423-aad0-57014ab6b496","type":"Feature","properties":{"title":"Grandford, March","url":"https://archaeologydataservice.ac.uk/archives/view/romangl/maprecord.cfm?id=2054","form":"complex","size":"medium (4 - 8 ha)"},"geometry":{"type":"Point","coordinates":[0.054286005,52.57728]}},{"@id":"https://w3id.org/rrsp_convert/ff704a0f-9347-4085-ade5-8e29963bdf2c","type":"Feature","properties":{"title":"Haddenham Iron Age settlement","url":"https://archaeologydataservice.ac.uk/archives/view/romangl/maprecord.cfm?id=2055","form":"enclosed","size":"small (<1 - 3 ha)"},"geometry":{"type":"Point","coordinates":[0.070726222,52.340428]}},{"@id":"https://w3id.org/rrsp_convert/9b15707c-1b13-4394-8d90-3098cb6bfe67","type":"Feature","properties":{"title":"Haddenham Roman shrine","url":"https://archaeologydataservice.ac.uk/archives/view/romangl/maprecord.cfm?id=2056","form":"unclassified","size":"uncertain"},"geometry":{"type":"Point","coordinates":[0.065924214,52.343227]}},{"@id":"https://w3id.org/rrsp_convert/256f6620-505b-4273-8849-6e44b55d0a55","type":"Feature","properties":{"title":"Exning","url":"https://archaeologydataservice.ac.uk/archives/view/romangl/maprecord.cfm?id=2057","form":"unclassified","size":"uncertain"},"geometry":{"type":"Point","coordinates":[0.36172604,52.282903]}},{"@id":"https://w3id.org/rrsp_convert/95fde601-feed-43f8-9845-bac4fdd7ed30","type":"Feature","properties":{"title":"Rectory Field, Godmanchester","url":"https://archaeologydataservice.ac.uk/archives/view/romangl/maprecord.cfm?id=2058","form":"unclassified","size":"small (<1 - 3 ha)"},"geometry":{"type":"Point","coordinates":[-0.15841028,52.326329]}},{"@id":"https://w3id.org/rrsp_convert/2499d11d-b1ed-4e1b-a24c-19c5402ae44c","type":"Feature","properties":{"title":"Eaton Ford","url":"https://archaeologydataservice.ac.uk/archives/view/romangl/maprecord.cfm?id=2059","form":"unclassified","size":"uncertain"},"geometry":{"type":"Point","coordinates":[-0.28685514,52.230257]}},{"@id":"https://w3id.org/rrsp_convert/ab31e48a-e258-43b1-9ca0-bb504079eedb","type":"Feature","properties":{"title":"Greenhouse Farm pottery kilns","url":"https://archaeologydataservice.ac.uk/archives/view/romangl/maprecord.cfm?id=2060","form":"enclosed","size":"small (<1 - 3 ha)"},"geometry":{"type":"Point","coordinates":[0.17945379,52.213574]}},{"@id":"https://w3id.org/rrsp_convert/98d778a8-da22-45ff-92a9-840c49c4aa27","type":"Feature","properties":{"title":"Langwood Farm, Chatteris","url":"https://archaeologydataservice.ac.uk/archives/view/romangl/maprecord.cfm?id=2061","form":"complex","size":"large (9+ ha)"},"geometry":{"type":"Point","coordinates":[0.084977223,52.446368]}},{"@id":"https://w3id.org/rrsp_convert/226ba518-9f22-4d7f-a468-7375e4a4846b","type":"Feature","properties":{"title":"Camp Ground, Colne Fen, Earith","url":"https://archaeologydataservice.ac.uk/archives/view/romangl/maprecord.cfm?id=2062","form":"complex","size":"medium (4 - 8 ha)"},"geometry":{"type":"Point","coordinates":[0.022568129,52.384961]}},{"@id":"https://w3id.org/rrsp_convert/358e7f4e-87ea-4345-87ce-a087673d4f8d","type":"Feature","properties":{"title":"Queensholme","url":"https://archaeologydataservice.ac.uk/archives/view/romangl/maprecord.cfm?id=2063","form":"unclassified","size":"medium (4 - 8 ha)"},"geometry":{"type":"Point","coordinates":[0.078329717,52.323192]}},{"@id":"https://w3id.org/rrsp_convert/1bbec770-09b8-483a-94de-e2b86b143b12","type":"Feature","properties":{"title":"Eynesbury","url":"https://archaeologydataservice.ac.uk/archives/view/romangl/maprecord.cfm?id=2064","form":"unclassified","size":"uncertain"},"geometry":{"type":"Point","coordinates":[-0.27438075,52.212092]}},{"@id":"https://w3id.org/rrsp_convert/c5c9fe49-65de-484a-a24c-d4916f337a17","type":"Feature","properties":{"title":"Cat's water, Fengate","url":"https://archaeologydataservice.ac.uk/archives/view/romangl/maprecord.cfm?id=2065","form":"complex","size":"small (<1 - 3 ha)"},"geometry":{"type":"Point","coordinates":[-0.20740268,52.574393]}},{"@id":"https://w3id.org/rrsp_convert/402f9023-2488-42fc-9625-916305a12932","type":"Feature","properties":{"title":"March to Chatteris","url":"https://archaeologydataservice.ac.uk/archives/view/romangl/maprecord.cfm?id=2066","form":"unclassified","size":"uncertain"},"geometry":{"type":"Point","coordinates":[0.080846456,52.502008]}},{"@id":"https://w3id.org/rrsp_convert/149c84c4-ee50-4c17-96fe-30f24c2d69d4","type":"Feature","properties":{"title":"Woolley Hill, Ellington, Huntingdon","url":"https://archaeologydataservice.ac.uk/archives/view/romangl/maprecord.cfm?id=2067","form":"unclassified","size":"small (<1 - 3 ha)"},"geometry":{"type":"Point","coordinates":[-0.29745431,52.34352]}},{"@id":"https://w3id.org/rrsp_convert/12b86b0e-f885-4ff4-bad6-3eada59d7307","type":"Feature","properties":{"title":"Waste Management Park, Waterbeach, Cambridge","url":"https://archaeologydataservice.ac.uk/archives/view/romangl/maprecord.cfm?id=2068","form":"unclassified","size":"medium (4 - 8 ha)"},"geometry":{"type":"Point","coordinates":[0.1791583,52.297204]}},{"@id":"https://w3id.org/rrsp_convert/736d2697-68af-41fa-8ca2-51082dbc5316","type":"Feature","properties":{"title":"Bedford Purlieus Wood, Thornhaugh near Peterborough","url":"https://archaeologydataservice.ac.uk/archives/view/romangl/maprecord.cfm?id=2069","form":"unclassified","size":"medium (4 - 8 ha)"},"geometry":{"type":"Point","coordinates":[-0.45858067,52.587621]}},{"@id":"https://w3id.org/rrsp_convert/d7d7d70b-4f92-4bfc-9779-46b47b45598f","type":"Feature","properties":{"title":"Maxey Quarry","url":"https://archaeologydataservice.ac.uk/archives/view/romangl/maprecord.cfm?id=2070","form":"unclassified","size":"uncertain"},"geometry":{"type":"Point","coordinates":[-0.33822464,52.657164]}},{"@id":"https://w3id.org/rrsp_convert/6650fefb-12ac-46fd-97ef-dc0dc3b055f2","type":"Feature","properties":{"title":"Land off Broadway, Yaxley, Peterborough","url":"https://archaeologydataservice.ac.uk/archives/view/romangl/maprecord.cfm?id=2071","form":"complex","size":"small (<1 - 3 ha)"},"geometry":{"type":"Point","coordinates":[-0.24539158,52.523659]}},{"@id":"https://w3id.org/rrsp_convert/ac400d1d-2bd6-40e5-87af-480009d46a7c","type":"Feature","properties":{"title":"A15 Werrington to Glinton Bypass","url":"https://archaeologydataservice.ac.uk/archives/view/romangl/maprecord.cfm?id=2072","form":"unclassified","size":"small (<1 - 3 ha)"},"geometry":{"type":"Point","coordinates":[-0.29491079,52.630385]}},{"@id":"https://w3id.org/rrsp_convert/504afd88-59ff-4c68-9def-35266ebf4bf2","type":"Feature","properties":{"title":"Castor (Castor Barns, The Cedars and Time Team)","url":"https://archaeologydataservice.ac.uk/archives/view/romangl/maprecord.cfm?id=2073","form":"unclassified","size":"medium (4 - 8 ha)"},"geometry":{"type":"Point","coordinates":[-0.34218458,52.571987]}},{"@id":"https://w3id.org/rrsp_convert/d0e6deef-7ba0-4f78-ab90-02c7ac9569e9","type":"Feature","properties":{"title":"Eye Quarry, Peterborough","url":"https://archaeologydataservice.ac.uk/archives/view/romangl/maprecord.cfm?id=2074","form":"unclassified","size":"uncertain"},"geometry":{"type":"Point","coordinates":[-0.16593287,52.605172]}},{"@id":"https://w3id.org/rrsp_convert/fa4bb0ed-01bb-4306-b030-d0340caf3c94","type":"Feature","properties":{"title":"Land adjacent to Itter Crescent, Peterborough","url":"https://archaeologydataservice.ac.uk/archives/view/romangl/maprecord.cfm?id=2075","form":"unclassified","size":"medium (4 - 8 ha)"},"geometry":{"type":"Point","coordinates":[-0.25617734,52.601141]}},{"@id":"https://w3id.org/rrsp_convert/f050231a-189c-4a86-9c96-df5006298ea4","type":"Feature","properties":{"title":"Land adjacent to Oundle Road, Peterborough Business Park","url":"https://archaeologydataservice.ac.uk/archives/view/romangl/maprecord.cfm?id=2076","form":"unclassified","size":"uncertain"},"geometry":{"type":"Point","coordinates":[-0.32008663,52.551716]}},{"@id":"https://w3id.org/rrsp_convert/def3f628-5531-45c4-b538-4577224478dc","type":"Feature","properties":{"title":"Lyndon Farm, High Street, Maxey","url":"https://archaeologydataservice.ac.uk/archives/view/romangl/maprecord.cfm?id=2077","form":"unclassified","size":"uncertain"},"geometry":{"type":"Point","coordinates":[-0.35417414,52.657656]}},{"@id":"https://w3id.org/rrsp_convert/bd546da1-8362-4a0f-8727-b4cfd269ada2","type":"Feature","properties":{"title":"Land at Manor Drive, Paston, Peterborough","url":"https://archaeologydataservice.ac.uk/archives/view/romangl/maprecord.cfm?id=2078","form":"unclassified","size":"small (<1 - 3 ha)"},"geometry":{"type":"Point","coordinates":[-0.23908445,52.61165]}},{"@id":"https://w3id.org/rrsp_convert/f90f9c3d-56ac-4faf-872e-75a56d26cfa4","type":"Feature","properties":{"title":"Mayor's Walk, Peterborough","url":"https://archaeologydataservice.ac.uk/archives/view/romangl/maprecord.cfm?id=2079","form":"unclassified","size":"uncertain"},"geometry":{"type":"Point","coordinates":[-0.25424854,52.579085]}},{"@id":"https://w3id.org/rrsp_convert/3d1fdd01-d7f6-41f9-b91d-b09f1ac0823d","type":"Feature","properties":{"title":"Haddon bathhouse","url":"https://archaeologydataservice.ac.uk/archives/view/romangl/maprecord.cfm?id=2080","form":"unclassified","size":"uncertain"},"geometry":{"type":"Point","coordinates":[-0.32111538,52.524758]}},{"@id":"https://w3id.org/rrsp_convert/621b0548-bcac-4e01-932f-3b10ffba604f","type":"Feature","properties":{"title":"Westfield Road, Peterborough","url":"https://archaeologydataservice.ac.uk/archives/view/romangl/maprecord.cfm?id=2081","form":"unclassified","size":"uncertain"},"geometry":{"type":"Point","coordinates":[-0.25692637,52.582271]}},{"@id":"https://w3id.org/rrsp_convert/894a8f0b-fcc0-424c-8e97-14763a818d2b","type":"Feature","properties":{"title":"Wilberton","url":"https://archaeologydataservice.ac.uk/archives/view/romangl/maprecord.cfm?id=2082","form":"unclassified","size":"uncertain"},"geometry":{"type":"Point","coordinates":[0.17406359,52.336602]}},{"@id":"https://w3id.org/rrsp_convert/9cd533ac-7f6c-4b56-8947-02426b2ed3ec","type":"Feature","properties":{"title":"Stow Longa to Tilbrook Pipeline","url":"https://archaeologydataservice.ac.uk/archives/view/romangl/maprecord.cfm?id=2083","form":"unclassified","size":"uncertain"},"geometry":{"type":"Point","coordinates":[-0.40022869,52.317138]}},{"@id":"https://w3id.org/rrsp_convert/001eda45-070b-405e-91b0-7d41db415fba","type":"Feature","properties":{"title":"Ely Road/Hill Close, Milton","url":"https://archaeologydataservice.ac.uk/archives/view/romangl/maprecord.cfm?id=2084","form":"unclassified","size":"small (<1 - 3 ha)"},"geometry":{"type":"Point","coordinates":[0.16924222,52.244335]}},{"@id":"https://w3id.org/rrsp_convert/23b13a3b-18f8-41d2-8bc1-48c0c1be95fa","type":"Feature","properties":{"title":"Unwins Nursery, Impington","url":"https://archaeologydataservice.ac.uk/archives/view/romangl/maprecord.cfm?id=2085","form":"unclassified","size":"uncertain"},"geometry":{"type":"Point","coordinates":[0.11241825,52.250761]}},{"@id":"https://w3id.org/rrsp_convert/20666735-d3ea-4473-b179-9445bc70d5e4","type":"Feature","properties":{"title":"Over Industrial Estate","url":"https://archaeologydataservice.ac.uk/archives/view/romangl/maprecord.cfm?id=2086","form":"unclassified","size":"uncertain"},"geometry":{"type":"Point","coordinates":[0.021099541,52.304512]}},{"@id":"https://w3id.org/rrsp_convert/dd34927a-52ba-4e87-919a-0450f0e5d62c","type":"Feature","properties":{"title":"New Road, Haslingfield","url":"https://archaeologydataservice.ac.uk/archives/view/romangl/maprecord.cfm?id=2087","form":"unclassified","size":"small (<1 - 3 ha)"},"geometry":{"type":"Point","coordinates":[0.057340997,52.152734]}},{"@id":"https://w3id.org/rrsp_convert/1ae5a834-871e-4707-b267-24bdc950b625","type":"Feature","properties":{"title":"Litlington","url":"https://archaeologydataservice.ac.uk/archives/view/romangl/maprecord.cfm?id=2088","form":"unclassified","size":"medium (4 - 8 ha)"},"geometry":{"type":"Point","coordinates":[-0.087825365,52.065826]}},{"@id":"https://w3id.org/rrsp_convert/e38c2a25-01d2-484b-b206-6ff8d2b0493c","type":"Feature","properties":{"title":"Stilton","url":"https://archaeologydataservice.ac.uk/archives/view/romangl/maprecord.cfm?id=2089","form":"complex","size":"medium (4 - 8 ha)"},"geometry":{"type":"Point","coordinates":[-0.27204767,52.497978]}},{"@id":"https://w3id.org/rrsp_convert/d2b97300-4cac-4e14-acb5-8e3c166f8843","type":"Feature","properties":{"title":"15-17 Hay Street, Steeple Morden","url":"https://archaeologydataservice.ac.uk/archives/view/romangl/maprecord.cfm?id=2090","form":"unclassified","size":"small (<1 - 3 ha)"},"geometry":{"type":"Point","coordinates":[-0.12533565,52.066851]}},{"@id":"https://w3id.org/rrsp_convert/6e7a3f62-56cb-432a-a250-ced41d8edced","type":"Feature","properties":{"title":"Downing College, Long Road, Cambridge","url":"https://archaeologydataservice.ac.uk/archives/view/romangl/maprecord.cfm?id=2091","form":"unclassified","size":"uncertain"},"geometry":{"type":"Point","coordinates":[0.13669158,52.17659]}},{"@id":"https://w3id.org/rrsp_convert/cd1f469d-4750-4eb7-86e6-4c90fb2106cf","type":"Feature","properties":{"title":"Whiteland Spring, Bottisham","url":"https://archaeologydataservice.ac.uk/archives/view/romangl/maprecord.cfm?id=2092","form":"unclassified","size":"small (<1 - 3 ha)"},"geometry":{"type":"Point","coordinates":[0.27789742,52.220707]}},{"@id":"https://w3id.org/rrsp_convert/05683489-05c0-4574-b49d-875f04c129dd","type":"Feature","properties":{"title":"Longhill Road, March","url":"https://archaeologydataservice.ac.uk/archives/view/romangl/maprecord.cfm?id=2093","form":"unclassified","size":"small (<1 - 3 ha)"},"geometry":{"type":"Point","coordinates":[0.086601263,52.574018]}},{"@id":"https://w3id.org/rrsp_convert/9f352e7d-555c-462e-9195-59e369311036","type":"Feature","properties":{"title":"Langdale Hale, Earith, Colne Fen","url":"https://archaeologydataservice.ac.uk/archives/view/romangl/maprecord.cfm?id=2094","form":"complex","size":"small (<1 - 3 ha)"},"geometry":{"type":"Point","coordinates":[0.030039194,52.375805]}},{"@id":"https://w3id.org/rrsp_convert/cf68a50d-8ca7-43f3-ae9c-f25180b96ad7","type":"Feature","properties":{"title":"The Holme, Colne Fen, Earith","url":"https://archaeologydataservice.ac.uk/archives/view/romangl/maprecord.cfm?id=2095","form":"unclassified","size":"small (<1 - 3 ha)"},"geometry":{"type":"Point","coordinates":[0.033390432,52.370722]}},{"@id":"https://w3id.org/rrsp_convert/8399c490-fe81-4b0e-a2e5-81d4d1ecb53d","type":"Feature","properties":{"title":"New Fen Drove, Earith","url":"https://archaeologydataservice.ac.uk/archives/view/romangl/maprecord.cfm?id=2096","form":"complex","size":"large (9+ ha)"},"geometry":{"type":"Point","coordinates":[0.042476881,52.364208]}},{"@id":"https://w3id.org/rrsp_convert/bb25d4cb-0ea9-443a-b1b4-ca1b4787c077","type":"Feature","properties":{"title":"Knobbs Farm, Somersham","url":"https://archaeologydataservice.ac.uk/archives/view/romangl/maprecord.cfm?id=2097","form":"complex","size":"small (<1 - 3 ha)"},"geometry":{"type":"Point","coordinates":[0.009088088,52.395531]}},{"@id":"https://w3id.org/rrsp_convert/a819c566-2210-411a-b115-5cbdabdf2eac","type":"Feature","properties":{"title":"High Cross, Cambridge","url":"https://archaeologydataservice.ac.uk/archives/view/romangl/maprecord.cfm?id=2098","form":"unclassified","size":"small (<1 - 3 ha)"},"geometry":{"type":"Point","coordinates":[0.093267475,52.211178]}},{"@id":"https://w3id.org/rrsp_convert/8dc73bb2-d1ca-48a7-b370-e07a83ce4c52","type":"Feature","properties":{"title":"Hinxton Quarry, Cambridge","url":"https://archaeologydataservice.ac.uk/archives/view/romangl/maprecord.cfm?id=2099","form":"complex","size":"uncertain"},"geometry":{"type":"Point","coordinates":[0.16942304,52.097762]}},{"@id":"https://w3id.org/rrsp_convert/38ae67d7-1dfb-4a8b-a366-710d5c371f8b","type":"Feature","properties":{"title":"Low Fen, Fen Drayton","url":"https://archaeologydataservice.ac.uk/archives/view/romangl/maprecord.cfm?id=2100","form":"unclassified","size":"uncertain"},"geometry":{"type":"Point","coordinates":[-0.039834702,52.303111]}},{"@id":"https://w3id.org/rrsp_convert/823b528e-8edc-41a6-9b04-f8b63cd7e6e9","type":"Feature","properties":{"title":"Land off Huntingdon Road, Cambridge","url":"https://archaeologydataservice.ac.uk/archives/view/romangl/maprecord.cfm?id=2101","form":"unclassified","size":"small (<1 - 3 ha)"},"geometry":{"type":"Point","coordinates":[0.10245867,52.226031]}},{"@id":"https://w3id.org/rrsp_convert/b544c109-e111-433b-b528-13f3eaea69aa","type":"Feature","properties":{"title":"East of Godmanchester","url":"https://archaeologydataservice.ac.uk/archives/view/romangl/maprecord.cfm?id=2102","form":"unclassified","size":"small (<1 - 3 ha)"},"geometry":{"type":"Point","coordinates":[-0.15758695,52.315769]}},{"@id":"https://w3id.org/rrsp_convert/d557a09c-c536-4526-a98b-55956e956491","type":"Feature","properties":{"title":"Bob's Wood, The Stukeleys, Hinchingbrooke","url":"https://archaeologydataservice.ac.uk/archives/view/romangl/maprecord.cfm?id=2103","form":"complex","size":"medium (4 - 8 ha)"},"geometry":{"type":"Point","coordinates":[-0.2090869,52.337125]}},{"@id":"https://w3id.org/rrsp_convert/90226a73-fb99-4453-b097-9b25c7d09d9e","type":"Feature","properties":{"title":"Ely, Stirling Way near Witchford","url":"https://archaeologydataservice.ac.uk/archives/view/romangl/maprecord.cfm?id=2104","form":"unclassified","size":"small (<1 - 3 ha)"},"geometry":{"type":"Point","coordinates":[0.22473598,52.387173]}},{"@id":"https://w3id.org/rrsp_convert/f6366f62-273d-488b-a077-394638b4ae95","type":"Feature","properties":{"title":"Cottenham to Landbeach","url":"https://archaeologydataservice.ac.uk/archives/view/romangl/maprecord.cfm?id=2105","form":"unclassified","size":"uncertain"},"geometry":{"type":"Point","coordinates":[0.15818884,52.29063]}},{"@id":"https://w3id.org/rrsp_convert/ce644f8f-3714-424b-b770-07f701857da9","type":"Feature","properties":{"title":"Needingworth Bypass","url":"https://archaeologydataservice.ac.uk/archives/view/romangl/maprecord.cfm?id=2106","form":"unclassified","size":"small (<1 - 3 ha)"},"geometry":{"type":"Point","coordinates":[-0.046986571,52.332901]}},{"@id":"https://w3id.org/rrsp_convert/a2b47904-9e5d-40eb-bd42-dd4ac5c673c5","type":"Feature","properties":{"title":"Great Haddon","url":"https://archaeologydataservice.ac.uk/archives/view/romangl/maprecord.cfm?id=2107","form":"unclassified","size":"uncertain"},"geometry":{"type":"Point","coordinates":[-0.28487913,52.508954]}},{"@id":"https://w3id.org/rrsp_convert/791234bb-2019-46df-9a71-fd96a7b40200","type":"Feature","properties":{"title":"Bannold Lodge, Chittering","url":"https://archaeologydataservice.ac.uk/archives/view/romangl/maprecord.cfm?id=2108","form":"unclassified","size":"small (<1 - 3 ha)"},"geometry":{"type":"Point","coordinates":[0.19816216,52.299505]}},{"@id":"https://w3id.org/rrsp_convert/d17e41bf-8640-4d66-8df0-e306d4bb99fb","type":"Feature","properties":{"title":"Linton Roman Villa","url":"https://archaeologydataservice.ac.uk/archives/view/romangl/maprecord.cfm?id=2109","form":"unclassified","size":"medium (4 - 8 ha)"},"geometry":{"type":"Point","coordinates":[0.29176519,52.091849]}},{"@id":"https://w3id.org/rrsp_convert/1dc010ad-4709-4cef-94a0-674c144bd340","type":"Feature","properties":{"title":"Vicar's Farm, West Cambridge","url":"https://archaeologydataservice.ac.uk/archives/view/romangl/maprecord.cfm?id=2110","form":"complex","size":"medium (4 - 8 ha)"},"geometry":{"type":"Point","coordinates":[0.094369879,52.20972]}},{"@id":"https://w3id.org/rrsp_convert/a7f6e62c-5f26-4433-962c-bdd9bbda048c","type":"Feature","properties":{"title":"Linton Village College","url":"https://archaeologydataservice.ac.uk/archives/view/romangl/maprecord.cfm?id=2111","form":"unclassified","size":"uncertain"},"geometry":{"type":"Point","coordinates":[0.27096449,52.099086]}},{"@id":"https://w3id.org/rrsp_convert/4b16b357-e6e6-48b9-8556-ebc5fdf8a833","type":"Feature","properties":{"title":"Great Wilbraham","url":"https://archaeologydataservice.ac.uk/archives/view/romangl/maprecord.cfm?id=2112","form":"unclassified","size":"uncertain"},"geometry":{"type":"Point","coordinates":[0.27382483,52.198305]}},{"@id":"https://w3id.org/rrsp_convert/359ce407-9830-4de5-8576-3c198b6fcb76","type":"Feature","properties":{"title":"Milton, East Waste","url":"https://archaeologydataservice.ac.uk/archives/view/romangl/maprecord.cfm?id=2113","form":"unclassified","size":"small (<1 - 3 ha)"},"geometry":{"type":"Point","coordinates":[0.14418832,52.241196]}},{"@id":"https://w3id.org/rrsp_convert/db802c6d-e2a0-442a-bf7d-3b7565db3452","type":"Feature","properties":{"title":"HMP Littlehey, Perry","url":"https://archaeologydataservice.ac.uk/archives/view/romangl/maprecord.cfm?id=2114","form":"unclassified","size":"small (<1 - 3 ha)"},"geometry":{"type":"Point","coordinates":[-0.31575136,52.279226]}},{"@id":"https://w3id.org/rrsp_convert/de2b9108-9d69-4b31-bfdc-7cbca536702a","type":"Feature","properties":{"title":"Fenstanton","url":"https://archaeologydataservice.ac.uk/archives/view/romangl/maprecord.cfm?id=2115","form":"unclassified","size":"small (<1 - 3 ha)"},"geometry":{"type":"Point","coordinates":[-0.066635619,52.300675]}},{"@id":"https://w3id.org/rrsp_convert/3f467c94-167d-48ec-8179-ef02c218499b","type":"Feature","properties":{"title":"Black Horse Farm, Sawtry","url":"https://archaeologydataservice.ac.uk/archives/view/romangl/maprecord.cfm?id=2116","form":"unclassified","size":"uncertain"},"geometry":{"type":"Point","coordinates":[-0.27066209,52.43565]}},{"@id":"https://w3id.org/rrsp_convert/f6a9ac91-15a8-4a8f-aaed-611a601aadeb","type":"Feature","properties":{"title":"Clay Farm, Trumpington","url":"https://archaeologydataservice.ac.uk/archives/view/romangl/maprecord.cfm?id=2117","form":"complex","size":"small (<1 - 3 ha)"},"geometry":{"type":"Point","coordinates":[0.12155855,52.175775]}},{"@id":"https://w3id.org/rrsp_convert/2d05373a-643f-4361-8101-af3dd432234c","type":"Feature","properties":{"title":"Love's Farm St Neots","url":"https://archaeologydataservice.ac.uk/archives/view/romangl/maprecord.cfm?id=2118","form":"complex","size":"medium (4 - 8 ha)"},"geometry":{"type":"Point","coordinates":[-0.2424547,52.242192]}},{"@id":"https://w3id.org/rrsp_convert/f228a62d-e251-4d36-9bf3-2beb30b599af","type":"Feature","properties":{"title":"Granhams Farm Golf Course","url":"https://archaeologydataservice.ac.uk/archives/view/romangl/maprecord.cfm?id=2119","form":"unclassified","size":"small (<1 - 3 ha)"},"geometry":{"type":"Point","coordinates":[0.14029929,52.160339]}},{"@id":"https://w3id.org/rrsp_convert/7817c4b5-bc64-4fca-aa6a-5601f4ec0154","type":"Feature","properties":{"title":"Hinxton","url":"https://archaeologydataservice.ac.uk/archives/view/romangl/maprecord.cfm?id=2120","form":"unclassified","size":"small (<1 - 3 ha)"},"geometry":{"type":"Point","coordinates":[0.18693651,52.067764]}},{"@id":"https://w3id.org/rrsp_convert/f87951d4-df14-467c-8130-8f8d504131e5","type":"Feature","properties":{"title":"31 Tunbridge lane, Bottisham","url":"https://archaeologydataservice.ac.uk/archives/view/romangl/maprecord.cfm?id=2121","form":"unclassified","size":"uncertain"},"geometry":{"type":"Point","coordinates":[0.2593667,52.22484]}},{"@id":"https://w3id.org/rrsp_convert/ac25e81d-0d02-4e32-a9a2-4ac1e65b839b","type":"Feature","properties":{"title":"Meadow lane, St Ives, Cambs","url":"https://archaeologydataservice.ac.uk/archives/view/romangl/maprecord.cfm?id=2122","form":"unclassified","size":"small (<1 - 3 ha)"},"geometry":{"type":"Point","coordinates":[-0.051673661,52.317424]}},{"@id":"https://w3id.org/rrsp_convert/c5501e53-eaec-4b32-a471-5437cb3cfa09","type":"Feature","properties":{"title":"Bourn Bridge, Pampisford","url":"https://archaeologydataservice.ac.uk/archives/view/romangl/maprecord.cfm?id=2123","form":"unclassified","size":"uncertain"},"geometry":{"type":"Point","coordinates":[0.2130156,52.123028]}},{"@id":"https://w3id.org/rrsp_convert/8d291128-3f2b-45cb-a662-35a82bca5e91","type":"Feature","properties":{"title":"Fen Drayton Reservoir","url":"https://archaeologydataservice.ac.uk/archives/view/romangl/maprecord.cfm?id=2124","form":"unclassified","size":"uncertain"},"geometry":{"type":"Point","coordinates":[-0.044839005,52.30305]}},{"@id":"https://w3id.org/rrsp_convert/7b151021-e278-49e7-8e33-ca01d3161e99","type":"Feature","properties":{"title":"Owl's End Road, Bury","url":"https://archaeologydataservice.ac.uk/archives/view/romangl/maprecord.cfm?id=2125","form":"unenclosed","size":"small (<1 - 3 ha)"},"geometry":{"type":"Point","coordinates":[-0.11264041,52.4362]}},{"@id":"https://w3id.org/rrsp_convert/4aec182f-22d2-49ee-a608-fb2da03fa0d6","type":"Feature","properties":{"title":"Stonald Field, King's Dyke West, Whittlesey","url":"https://archaeologydataservice.ac.uk/archives/view/romangl/maprecord.cfm?id=2126","form":"complex","size":"uncertain"},"geometry":{"type":"Point","coordinates":[-0.16901981,52.566559]}},{"@id":"https://w3id.org/rrsp_convert/896d9d3c-8397-456d-9464-ec432f941578","type":"Feature","properties":{"title":"Bradley Fen, Whittlesey","url":"https://archaeologydataservice.ac.uk/archives/view/romangl/maprecord.cfm?id=2127","form":"unenclosed","size":"small (<1 - 3 ha)"},"geometry":{"type":"Point","coordinates":[-0.17945337,52.564022]}},{"@id":"https://w3id.org/rrsp_convert/a83aa70f-bfaf-421e-b557-1d02ecc93bd1","type":"Feature","properties":{"title":"ARES Site, Babraham","url":"https://archaeologydataservice.ac.uk/archives/view/romangl/maprecord.cfm?id=2128","form":"unclassified","size":"small (<1 - 3 ha)"},"geometry":{"type":"Point","coordinates":[0.20410502,52.134885]}},{"@id":"https://w3id.org/rrsp_convert/e652a6fa-4bd4-410c-bbfe-63f282330247","type":"Feature","properties":{"title":"Roman cemetery, Babraham","url":"https://archaeologydataservice.ac.uk/archives/view/romangl/maprecord.cfm?id=2129","form":"unclassified","size":"uncertain"},"geometry":{"type":"Point","coordinates":[0.20597273,52.134239]}},{"@id":"https://w3id.org/rrsp_convert/5055e79e-d805-4cf6-9d11-e5beeb1954a0","type":"Feature","properties":{"title":"Coton to Bourn Booster Pipeline","url":"https://archaeologydataservice.ac.uk/archives/view/romangl/maprecord.cfm?id=2130","form":"unclassified","size":"uncertain"},"geometry":{"type":"Point","coordinates":[-0.04120504,52.222173]}},{"@id":"https://w3id.org/rrsp_convert/6704b092-ca18-44b5-a327-419f0ecce717","type":"Feature","properties":{"title":"North-west Cambridge Site II/RB 1","url":"https://archaeologydataservice.ac.uk/archives/view/romangl/maprecord.cfm?id=2131","form":"complex","size":"small (<1 - 3 ha)"},"geometry":{"type":"Point","coordinates":[0.088668051,52.218597]}},{"@id":"https://w3id.org/rrsp_convert/ea3a420b-c250-40e3-b6c8-df3554a33783","type":"Feature","properties":{"title":"North-west Cambridge Sites IV-V (RB2)","url":"https://archaeologydataservice.ac.uk/archives/view/romangl/maprecord.cfm?id=2132","form":"complex","size":"medium (4 - 8 ha)"},"geometry":{"type":"Point","coordinates":[0.083172876,52.224116]}},{"@id":"https://w3id.org/rrsp_convert/9b3c6bc0-6bef-4df4-b84f-ee8de6aee21b","type":"Feature","properties":{"title":"North-west Cambridge Site VI","url":"https://archaeologydataservice.ac.uk/archives/view/romangl/maprecord.cfm?id=2133","form":"unclassified","size":"uncertain"},"geometry":{"type":"Point","coordinates":[0.07699682,52.22543]}},{"@id":"https://w3id.org/rrsp_convert/7aa94e1a-03e9-4f59-bcbd-38c7798f4dd2","type":"Feature","properties":{"title":"North-west Cambridge Site VII","url":"https://archaeologydataservice.ac.uk/archives/view/romangl/maprecord.cfm?id=2134","form":"unclassified","size":"medium (4 - 8 ha)"},"geometry":{"type":"Point","coordinates":[0.082483769,52.215334]}},{"@id":"https://w3id.org/rrsp_convert/5b84a8dd-b38a-4c8a-b453-0ce4d14cf048","type":"Feature","properties":{"title":"A14 Ellington to Fen Ditton Site 3","url":"https://archaeologydataservice.ac.uk/archives/view/romangl/maprecord.cfm?id=2135","form":"unclassified","size":"small (<1 - 3 ha)"},"geometry":{"type":"Point","coordinates":[-0.2460296,52.314562]}},{"@id":"https://w3id.org/rrsp_convert/de362d4e-6951-4ce9-bcb8-5b73bc0b10e5","type":"Feature","properties":{"title":"A14 Ellington to Fen Ditton Site 14","url":"https://archaeologydataservice.ac.uk/archives/view/romangl/maprecord.cfm?id=2136","form":"unclassified","size":"medium (4 - 8 ha)"},"geometry":{"type":"Point","coordinates":[-0.20603026,52.299845]}},{"@id":"https://w3id.org/rrsp_convert/86638b71-5ec3-4bf2-8bd1-e99c2526e7be","type":"Feature","properties":{"title":"A14 Ellington to Fen Ditton Site 20","url":"https://archaeologydataservice.ac.uk/archives/view/romangl/maprecord.cfm?id=2137","form":"unclassified","size":"small (<1 - 3 ha)"},"geometry":{"type":"Point","coordinates":[0.063860059,52.234841]}},{"@id":"https://w3id.org/rrsp_convert/31e7cdd4-5632-42ad-a432-c333a1fb4863","type":"Feature","properties":{"title":"Newmarket Road, Cambridge","url":"https://archaeologydataservice.ac.uk/archives/view/romangl/maprecord.cfm?id=2138","form":"unclassified","size":"small (<1 - 3 ha)"},"geometry":{"type":"Point","coordinates":[0.17161911,52.21201]}},{"@id":"https://w3id.org/rrsp_convert/2385ff65-c282-4387-a9ce-69a12c9efd11","type":"Feature","properties":{"title":"Impington King Hedges Farm","url":"https://archaeologydataservice.ac.uk/archives/view/romangl/maprecord.cfm?id=2139","form":"unclassified","size":"uncertain"},"geometry":{"type":"Point","coordinates":[0.12925246,52.235172]}},{"@id":"https://w3id.org/rrsp_convert/68040b5d-0ea6-450f-8032-1c66b2046f15","type":"Feature","properties":{"title":"Landbeach, Car Dyke Farm (Akeman Street)","url":"https://archaeologydataservice.ac.uk/archives/view/romangl/maprecord.cfm?id=2140","form":"unclassified","size":"small (<1 - 3 ha)"},"geometry":{"type":"Point","coordinates":[0.16039428,52.273271]}},{"@id":"https://w3id.org/rrsp_convert/39775717-59dc-4e43-8d09-a89ad6d9bbb2","type":"Feature","properties":{"title":"Littleport, Camel Road","url":"https://archaeologydataservice.ac.uk/archives/view/romangl/maprecord.cfm?id=2141","form":"unclassified","size":"medium (4 - 8 ha)"},"geometry":{"type":"Point","coordinates":[0.3034723,52.459847]}},{"@id":"https://w3id.org/rrsp_convert/1c88e81e-fc26-44ee-962d-af50b2c82e58","type":"Feature","properties":{"title":"Wimblington Road, March","url":"https://archaeologydataservice.ac.uk/archives/view/romangl/maprecord.cfm?id=2142","form":"unclassified","size":"uncertain"},"geometry":{"type":"Point","coordinates":[0.084995535,52.533945]}},{"@id":"https://w3id.org/rrsp_convert/9940878a-608a-4f67-b79b-dfcbbf476618","type":"Feature","properties":{"title":"Werrington","url":"https://archaeologydataservice.ac.uk/archives/view/romangl/maprecord.cfm?id=2143","form":"unclassified","size":"small (<1 - 3 ha)"},"geometry":{"type":"Point","coordinates":[-0.27845982,52.620347]}},{"@id":"https://w3id.org/rrsp_convert/c604cb95-4958-4df6-aedd-f5db3e6f73e1","type":"Feature","properties":{"title":"Throckenholt Farm, Parson Drove","url":"https://archaeologydataservice.ac.uk/archives/view/romangl/maprecord.cfm?id=2144","form":"unclassified","size":"small (<1 - 3 ha)"},"geometry":{"type":"Point","coordinates":[0.002054482,52.661793]}},{"@id":"https://w3id.org/rrsp_convert/ec305fe2-3a5c-4628-b5c5-6a42147f1e30","type":"Feature","properties":{"title":"Peterborough, Whittlesey Reinforcement Main","url":"https://archaeologydataservice.ac.uk/archives/view/romangl/maprecord.cfm?id=2145","form":"unclassified","size":"small (<1 - 3 ha)"},"geometry":{"type":"Point","coordinates":[-0.19946557,52.54551]}},{"@id":"https://w3id.org/rrsp_convert/036da6ea-ad8b-42ad-be94-d8f75546a470","type":"Feature","properties":{"title":"Airport Way, Teversham","url":"https://archaeologydataservice.ac.uk/archives/view/romangl/maprecord.cfm?id=2146","form":"unclassified","size":"uncertain"},"geometry":{"type":"Point","coordinates":[0.19097265,52.209674]}},{"@id":"https://w3id.org/rrsp_convert/9ad4c4eb-a750-46f4-a290-cb208c63e07a","type":"Feature","properties":{"title":"Car Dyke, Waterbeach","url":"https://archaeologydataservice.ac.uk/archives/view/romangl/maprecord.cfm?id=2147","form":"unclassified","size":"uncertain"},"geometry":{"type":"Point","coordinates":[0.19030693,52.255635]}},{"@id":"https://w3id.org/rrsp_convert/b43abd18-062f-41a4-a7a2-934c76648da5","type":"Feature","properties":{"title":"Waterbeach, Cambridge Rowing Lake","url":"https://archaeologydataservice.ac.uk/archives/view/romangl/maprecord.cfm?id=2148","form":"unclassified","size":"medium (4 - 8 ha)"},"geometry":{"type":"Point","coordinates":[0.18385076,52.25187]}},{"@id":"https://w3id.org/rrsp_convert/0ecd0db1-7364-4ff9-a2a0-2c073c741583","type":"Feature","properties":{"title":"Bretton Way, Peterborough","url":"https://archaeologydataservice.ac.uk/archives/view/romangl/maprecord.cfm?id=2149","form":"unclassified","size":"uncertain"},"geometry":{"type":"Point","coordinates":[-0.28807616,52.592723]}},{"@id":"https://w3id.org/rrsp_convert/c88911d8-db79-4976-a9a9-8c7da157a342","type":"Feature","properties":{"title":"West End, Haddenham","url":"https://archaeologydataservice.ac.uk/archives/view/romangl/maprecord.cfm?id=2150","form":"unclassified","size":"uncertain"},"geometry":{"type":"Point","coordinates":[0.14441799,52.358265]}},{"@id":"https://w3id.org/rrsp_convert/601846ed-3618-408e-b1a6-046dc1d14d20","type":"Feature","properties":{"title":"Longstanton site XIX","url":"https://archaeologydataservice.ac.uk/archives/view/romangl/maprecord.cfm?id=2151","form":"complex","size":"medium (4 - 8 ha)"},"geometry":{"type":"Point","coordinates":[0.0598307,52.283809]}},{"@id":"https://w3id.org/rrsp_convert/cb116509-021a-4236-b434-efc44e40ea74","type":"Feature","properties":{"title":"Longstanton site XVIII","url":"https://archaeologydataservice.ac.uk/archives/view/romangl/maprecord.cfm?id=2152","form":"complex","size":"large (9+ ha)"},"geometry":{"type":"Point","coordinates":[0.068070017,52.280652]}},{"@id":"https://w3id.org/rrsp_convert/7a9dfceb-2f91-4d99-bcc2-8276fdac6d3b","type":"Feature","properties":{"title":"Longstanton site XX","url":"https://archaeologydataservice.ac.uk/archives/view/romangl/maprecord.cfm?id=2153","form":"complex","size":"small (<1 - 3 ha)"},"geometry":{"type":"Point","coordinates":[0.043347573,52.291055]}},{"@id":"https://w3id.org/rrsp_convert/ec923479-8f6d-4491-841c-f8bcb4634830","type":"Feature","properties":{"title":"Longstanton site XII","url":"https://archaeologydataservice.ac.uk/archives/view/romangl/maprecord.cfm?id=2154","form":"complex","size":"small (<1 - 3 ha)"},"geometry":{"type":"Point","coordinates":[0.02728909,52.259861]}},{"@id":"https://w3id.org/rrsp_convert/6c8ab356-9ebf-4372-9159-fc11239ca7f1","type":"Feature","properties":{"title":"Newnham College, Cambridge","url":"https://archaeologydataservice.ac.uk/archives/view/romangl/maprecord.cfm?id=2155","form":"unclassified","size":"small (<1 - 3 ha)"},"geometry":{"type":"Point","coordinates":[0.10709422,52.200232]}},{"@id":"https://w3id.org/rrsp_convert/50de387b-64fc-47f3-b107-8278fa6f7289","type":"Feature","properties":{"title":"Northbridge, Huntingdon","url":"https://archaeologydataservice.ac.uk/archives/view/romangl/maprecord.cfm?id=2156","form":"unclassified","size":"uncertain"},"geometry":{"type":"Point","coordinates":[-0.20677743,52.345955]}},{"@id":"https://w3id.org/rrsp_convert/7c9e464b-691d-4c84-9c3d-794dd0743de3","type":"Feature","properties":{"title":"Papworth Everard Bypass","url":"https://archaeologydataservice.ac.uk/archives/view/romangl/maprecord.cfm?id=2157","form":"unclassified","size":"uncertain"},"geometry":{"type":"Point","coordinates":[-0.12020326,52.258291]}},{"@id":"https://w3id.org/rrsp_convert/6e091842-bf38-4ea7-9e92-367ad0dcd9d2","type":"Feature","properties":{"title":"Fordham Road Allotments, Soham","url":"https://archaeologydataservice.ac.uk/archives/view/romangl/maprecord.cfm?id=2158","form":"unclassified","size":"uncertain"},"geometry":{"type":"Point","coordinates":[0.35014237,52.327196]}},{"@id":"https://w3id.org/rrsp_convert/7e94af01-7bb3-45e4-ac64-6d1607a2f3f5","type":"Feature","properties":{"title":"Earith Road, Willingham","url":"https://archaeologydataservice.ac.uk/archives/view/romangl/maprecord.cfm?id=2159","form":"unclassified","size":"uncertain"},"geometry":{"type":"Point","coordinates":[0.05876804,52.316539]}},{"@id":"https://w3id.org/rrsp_convert/e9eb577e-16bc-458f-a36a-c539fc4ffa36","type":"Feature","properties":{"title":"West Fen Road, Ely","url":"https://archaeologydataservice.ac.uk/archives/view/romangl/maprecord.cfm?id=2160","form":"unclassified","size":"uncertain"},"geometry":{"type":"Point","coordinates":[0.24758423,52.404445]}},{"@id":"https://w3id.org/rrsp_convert/17c7621b-3d0c-49ac-950e-7e0e6055daf9","type":"Feature","properties":{"title":"Tower Works, Fengate West","url":"https://archaeologydataservice.ac.uk/archives/view/romangl/maprecord.cfm?id=2161","form":"unclassified","size":"uncertain"},"geometry":{"type":"Point","coordinates":[-0.21925995,52.572765]}},{"@id":"https://w3id.org/rrsp_convert/2583b35f-99f7-4d30-98a5-f4471411fecb","type":"Feature","properties":{"title":"West Fen Road, Ely: The Ashwell site","url":"https://archaeologydataservice.ac.uk/archives/view/romangl/maprecord.cfm?id=2162","form":"unclassified","size":"small (<1 - 3 ha)"},"geometry":{"type":"Point","coordinates":[0.24615741,52.403852]}},{"@id":"https://w3id.org/rrsp_convert/a7ee8fe3-da6a-45f1-9bf1-8ecf6434e76a","type":"Feature","properties":{"title":"East of Hinxton Grange","url":"https://archaeologydataservice.ac.uk/archives/view/romangl/maprecord.cfm?id=2163","form":"unclassified","size":"uncertain"},"geometry":{"type":"Point","coordinates":[0.20465311,52.095669]}},{"@id":"https://w3id.org/rrsp_convert/327c4547-fd71-447f-a770-d60087a93449","type":"Feature","properties":{"title":"Brampton Road, Buckden","url":"https://archaeologydataservice.ac.uk/archives/view/romangl/maprecord.cfm?id=2164","form":"unclassified","size":"uncertain"},"geometry":{"type":"Point","coordinates":[-0.23658238,52.305313]}},{"@id":"https://w3id.org/rrsp_convert/df89ac6a-fcdc-4277-be28-dee1f20b0875","type":"Feature","properties":{"title":"War Ditches, Cherry Hinton","url":"https://archaeologydataservice.ac.uk/archives/view/romangl/maprecord.cfm?id=2165","form":"enclosed","size":"small (<1 - 3 ha)"},"geometry":{"type":"Point","coordinates":[0.16892823,52.1778]}},{"@id":"https://w3id.org/rrsp_convert/b0699f23-29e7-4999-b6f4-96d8464180a7","type":"Feature","properties":{"title":"Papworth Everard Business Park","url":"https://archaeologydataservice.ac.uk/archives/view/romangl/maprecord.cfm?id=2166","form":"unclassified","size":"uncertain"},"geometry":{"type":"Point","coordinates":[-0.10831527,52.244974]}},{"@id":"https://w3id.org/rrsp_convert/56df72ed-60b2-4110-8245-0bb07457ea83","type":"Feature","properties":{"title":"Alma Road, Peterborough","url":"https://archaeologydataservice.ac.uk/archives/view/romangl/maprecord.cfm?id=2167","form":"unclassified","size":"uncertain"},"geometry":{"type":"Point","coordinates":[-0.24454755,52.588058]}},{"@id":"https://w3id.org/rrsp_convert/fb6eeda9-f9e0-4511-92a7-afa056be2bb1","type":"Feature","properties":{"title":"60 reach road, Burwell","url":"https://archaeologydataservice.ac.uk/archives/view/romangl/maprecord.cfm?id=2168","form":"unclassified","size":"uncertain"},"geometry":{"type":"Point","coordinates":[0.31938376,52.269445]}},{"@id":"https://w3id.org/rrsp_convert/d97c31b4-ca58-4690-b52a-d6f7b15e532f","type":"Feature","properties":{"title":"Coldham's Lane, Cherry Hinton","url":"https://archaeologydataservice.ac.uk/archives/view/romangl/maprecord.cfm?id=2169","form":"unclassified","size":"uncertain"},"geometry":{"type":"Point","coordinates":[0.16984671,52.196666]}},{"@id":"https://w3id.org/rrsp_convert/8c705b50-2637-4dcd-b536-5420cb9d787a","type":"Feature","properties":{"title":"Covells Drain, Swavesey","url":"https://archaeologydataservice.ac.uk/archives/view/romangl/maprecord.cfm?id=2170","form":"unclassified","size":"uncertain"},"geometry":{"type":"Point","coordinates":[-0.020753033,52.303422]}},{"@id":"https://w3id.org/rrsp_convert/4df28271-fbef-4473-b0ae-268f1b4010e9","type":"Feature","properties":{"title":"Wilsmere Down Farm, Barrington","url":"https://archaeologydataservice.ac.uk/archives/view/romangl/maprecord.cfm?id=2171","form":"unclassified","size":"small (<1 - 3 ha)"},"geometry":{"type":"Point","coordinates":[0.028878711,52.14018]}},{"@id":"https://w3id.org/rrsp_convert/42364ee0-03c0-487c-a975-4f8ab95360f6","type":"Feature","properties":{"title":"80 Wisbech Road,  Littleport","url":"https://archaeologydataservice.ac.uk/archives/view/romangl/maprecord.cfm?id=2172","form":"unclassified","size":"uncertain"},"geometry":{"type":"Point","coordinates":[0.29590488,52.461523]}},{"@id":"https://w3id.org/rrsp_convert/04c6b630-3fc3-4b80-a085-62523423ae9a","type":"Feature","properties":{"title":"Hundred Road, March","url":"https://archaeologydataservice.ac.uk/archives/view/romangl/maprecord.cfm?id=2173","form":"unclassified","size":"uncertain"},"geometry":{"type":"Point","coordinates":[0.078845854,52.566062]}},{"@id":"https://w3id.org/rrsp_convert/c470ab77-e0c5-44da-b491-da764d7cd2d1","type":"Feature","properties":{"title":"12 pieces lane, Waterbeach","url":"https://archaeologydataservice.ac.uk/archives/view/romangl/maprecord.cfm?id=2174","form":"unclassified","size":"uncertain"},"geometry":{"type":"Point","coordinates":[0.19589668,52.26794]}},{"@id":"https://w3id.org/rrsp_convert/60c073df-9f24-4138-aa48-f58e346005db","type":"Feature","properties":{"title":"Coates Road, Estrea, Whittlesea","url":"https://archaeologydataservice.ac.uk/archives/view/romangl/maprecord.cfm?id=2175","form":"unclassified","size":"uncertain"},"geometry":{"type":"Point","coordinates":[-0.088401958,52.557642]}},{"@id":"https://w3id.org/rrsp_convert/c5d5e1e0-7667-43fe-8efd-538aebb1575a","type":"Feature","properties":{"title":"Former Church Hall Site, High Street, Soham","url":"https://archaeologydataservice.ac.uk/archives/view/romangl/maprecord.cfm?id=2176","form":"unclassified","size":"small (<1 - 3 ha)"},"geometry":{"type":"Point","coordinates":[0.3382864,52.333366]}},